{
"type": "FeatureCollection",
"name": "domdom_store_list_kanto",
"crs": { "type": "name", "properties": { "name": "urn:ogc:def:crs:OGC:1.3:CRS84" } },
"features": [
{ "type": "Feature", "properties": { "col0": "ファミリーマート横浜星川駅前店", "col1": "神奈川県横浜市保土ケ谷区星川二丁目４−１星川ＳＦビル１Ｆ", "col2": null, "col3": "横浜市", "LocName": "神奈川県/横浜市/保土ケ谷区/星川/二丁目/４番", "fX": 139.59369, "fY": 35.45903, "iConf": 5, "iLvl": 7, "field_10": null, "field_11": null, "field_12": null }, "geometry": { "type": "Point", "coordinates": [ 139.59369, 35.45903 ] } },
{ "type": "Feature", "properties": { "col0": "ファミリーマート星川二丁目店", "col1": "神奈川県横浜市保土ケ谷区星川２丁目８−２２", "col2": null, "col3": "横浜市", "LocName": "神奈川県/横浜市/保土ケ谷区/星川/二丁目/８番", "fX": 139.59169, "fY": 35.45839, "iConf": 5, "iLvl": 7, "field_10": null, "field_11": null, "field_12": null }, "geometry": { "type": "Point", "coordinates": [ 139.59169, 35.45839 ] } },
{ "type": "Feature", "properties": { "col0": "ファミリーマート横浜釜台町店", "col1": "神奈川県横浜市保土ケ谷区釜台町４６−１２", "col2": null, "col3": "横浜市", "LocName": "神奈川県/横浜市/保土ケ谷区/釜台町/４６番", "fX": 139.58441, "fY": 35.47319, "iConf": 5, "iLvl": 7, "field_10": null, "field_11": null, "field_12": null }, "geometry": { "type": "Point", "coordinates": [ 139.58441, 35.47319 ] } },
{ "type": "Feature", "properties": { "col0": "ファミリーマート弘明寺中里店", "col1": "神奈川県横浜市南区中里３丁目１−５", "col2": null, "col3": "横浜市", "LocName": "神奈川県/横浜市/南区/中里/三丁目/１番", "fX": 139.59694, "fY": 35.42054, "iConf": 5, "iLvl": 7, "field_10": null, "field_11": null, "field_12": null }, "geometry": { "type": "Point", "coordinates": [ 139.59694, 35.42054 ] } },
{ "type": "Feature", "properties": { "col0": "ファミリーマート六ッ川二丁目店", "col1": "神奈川県横浜市南区六ツ川二丁目４７−４", "col2": null, "col3": "横浜市", "LocName": "神奈川県/横浜市/南区/六ツ川/二丁目/４７番地", "fX": 139.5853, "fY": 35.41883, "iConf": 5, "iLvl": 7, "field_10": null, "field_11": null, "field_12": null }, "geometry": { "type": "Point", "coordinates": [ 139.5853, 35.41883 ] } },
{ "type": "Feature", "properties": { "col0": "ファミリーマート横浜吉野町駅前店", "col1": "神奈川県横浜市南区吉野町３−１６", "col2": null, "col3": "横浜市", "LocName": "神奈川県/横浜市/南区/吉野町/三丁目/１６番地", "fX": 139.61911, "fY": 35.43543, "iConf": 5, "iLvl": 7, "field_10": null, "field_11": null, "field_12": null }, "geometry": { "type": "Point", "coordinates": [ 139.61911, 35.43543 ] } },
{ "type": "Feature", "properties": { "col0": "ファミリーマート蒔田駅前店", "col1": "神奈川県横浜市南区宮元町三丁目４６番２", "col2": null, "col3": "横浜市", "LocName": "神奈川県/横浜市/南区/宮元町/三丁目/４６番地", "fX": 139.61008, "fY": 35.43025, "iConf": 5, "iLvl": 7, "field_10": null, "field_11": null, "field_12": null }, "geometry": { "type": "Point", "coordinates": [ 139.61008, 35.43025 ] } },
{ "type": "Feature", "properties": { "col0": "ファミリーマート黄金町駅前店", "col1": "神奈川県横浜市南区白金町１−１", "col2": null, "col3": "横浜市", "LocName": "神奈川県/横浜市/南区/白金町/一丁目/１番地", "fX": 139.62302, "fY": 35.43963, "iConf": 5, "iLvl": 7, "field_10": null, "field_11": null, "field_12": null }, "geometry": { "type": "Point", "coordinates": [ 139.62302, 35.43963 ] } },
{ "type": "Feature", "properties": { "col0": "ファミリーマート阪東橋東口店", "col1": "神奈川県横浜市南区高根町２−１３", "col2": null, "col3": "横浜市", "LocName": "神奈川県/横浜市/南区/高根町/二丁目/１３番地", "fX": 139.62596, "fY": 35.43744, "iConf": 5, "iLvl": 7, "field_10": null, "field_11": null, "field_12": null }, "geometry": { "type": "Point", "coordinates": [ 139.62596, 35.43744 ] } },
{ "type": "Feature", "properties": { "col0": "ファミリーマート戸塚ＰＡ店", "col1": "神奈川県横浜市戸塚区上矢部町８４９", "col2": null, "col3": "横浜市", "LocName": "神奈川県/横浜市/戸塚区/上矢部町/８４９番地", "fX": 139.54004, "fY": 35.42362, "iConf": 5, "iLvl": 7, "field_10": null, "field_11": null, "field_12": null }, "geometry": { "type": "Point", "coordinates": [ 139.54004, 35.42362 ] } },
{ "type": "Feature", "properties": { "col0": "ファミリーマート東戸塚名瀬下店", "col1": "神奈川県横浜市戸塚区名瀬町５２７", "col2": null, "col3": "横浜市", "LocName": "神奈川県/横浜市/戸塚区/名瀬町/５２７番地", "fX": 139.54068, "fY": 35.42674, "iConf": 5, "iLvl": 7, "field_10": null, "field_11": null, "field_12": null }, "geometry": { "type": "Point", "coordinates": [ 139.54068, 35.42674 ] } },
{ "type": "Feature", "properties": { "col0": "ファミリーマート東戸塚記念病院前店", "col1": "神奈川県横浜市戸塚区品濃町５５１−３", "col2": null, "col3": "横浜市", "LocName": "神奈川県/横浜市/戸塚区/品濃町/５５１番地", "fX": 139.5602, "fY": 35.43176, "iConf": 5, "iLvl": 7, "field_10": null, "field_11": null, "field_12": null }, "geometry": { "type": "Point", "coordinates": [ 139.5602, 35.43176 ] } },
{ "type": "Feature", "properties": { "col0": "ファミリーマートサンズ戸塚深谷町店", "col1": "神奈川県横浜市戸塚区深谷１７１７−１", "col2": null, "col3": "横浜市", "LocName": "神奈川県/横浜市/戸塚区/深谷町", "fX": 139.5023, "fY": 35.38641, "iConf": 5, "iLvl": 5, "field_10": null, "field_11": null, "field_12": null }, "geometry": { "type": "Point", "coordinates": [ 139.5023, 35.38641 ] } },
{ "type": "Feature", "properties": { "col0": "ファミリーマート舞岡町店", "col1": "神奈川県横浜市戸塚区舞岡町３５６３番地", "col2": null, "col3": "横浜市", "LocName": "神奈川県/横浜市/戸塚区/舞岡町/３５６３番地", "fX": 139.55228, "fY": 35.41005, "iConf": 5, "iLvl": 7, "field_10": null, "field_11": null, "field_12": null }, "geometry": { "type": "Point", "coordinates": [ 139.55228, 35.41005 ] } },
{ "type": "Feature", "properties": { "col0": "ファミリーマート鶴ヶ峰本町店", "col1": "神奈川県横浜市旭区鶴ヶ峰本町２丁目４５−１７", "col2": null, "col3": "横浜市", "LocName": "神奈川県/横浜市/旭区/鶴ケ峰本町/二丁目/４５番", "fX": 139.54713, "fY": 35.47808, "iConf": 5, "iLvl": 7, "field_10": null, "field_11": null, "field_12": null }, "geometry": { "type": "Point", "coordinates": [ 139.54713, 35.47808 ] } },
{ "type": "Feature", "properties": { "col0": "ファミリーマート本郷小学校前店", "col1": "神奈川県横浜市栄区中野町６−１", "col2": null, "col3": "横浜市", "LocName": "神奈川県/横浜市/栄区/中野町/６番地", "fX": 139.56081, "fY": 35.3636, "iConf": 5, "iLvl": 7, "field_10": null, "field_11": null, "field_12": null }, "geometry": { "type": "Point", "coordinates": [ 139.56081, 35.3636 ] } },
{ "type": "Feature", "properties": { "col0": "ファミリーマート栄スポーツセンター店", "col1": "神奈川県横浜市栄区公田町５０６−５", "col2": null, "col3": "横浜市", "LocName": "神奈川県/横浜市/栄区/公田町/５０６番地", "fX": 139.55345, "fY": 35.36226, "iConf": 5, "iLvl": 7, "field_10": null, "field_11": null, "field_12": null }, "geometry": { "type": "Point", "coordinates": [ 139.55345, 35.36226 ] } },
{ "type": "Feature", "properties": { "col0": "ファミリーマート泉かまくらみち店", "col1": "神奈川県横浜市泉区和泉中央南１丁目２１−１０", "col2": null, "col3": "横浜市", "LocName": "神奈川県/横浜市/泉区/和泉中央南/一丁目/２１番", "fX": 139.50027, "fY": 35.40915, "iConf": 5, "iLvl": 7, "field_10": null, "field_11": null, "field_12": null }, "geometry": { "type": "Point", "coordinates": [ 139.50027, 35.40915 ] } },
{ "type": "Feature", "properties": { "col0": "ファミリーマートサンズ新吉田店", "col1": "神奈川県横浜市港北区新吉田東８丁目４６−１３", "col2": null, "col3": "横浜市", "LocName": "神奈川県/横浜市/港北区/新吉田東/八丁目/４６番", "fX": 139.61398, "fY": 35.53339, "iConf": 5, "iLvl": 7, "field_10": null, "field_11": null, "field_12": null }, "geometry": { "type": "Point", "coordinates": [ 139.61398, 35.53339 ] } },
{ "type": "Feature", "properties": { "col0": "ファミリーマートスリーウェル新横浜店", "col1": "神奈川県横浜市港北区新横浜１−２４−３", "col2": null, "col3": "横浜市", "LocName": "神奈川県/横浜市/港北区/新横浜/一丁目/２４番地", "fX": 139.60822, "fY": 35.50296, "iConf": 5, "iLvl": 7, "field_10": null, "field_11": null, "field_12": null }, "geometry": { "type": "Point", "coordinates": [ 139.60822, 35.50296 ] } },
{ "type": "Feature", "properties": { "col0": "ファミリーマート菊名駅東口店", "col1": "神奈川県横浜市港北区菊名４−３−２１", "col2": null, "col3": "横浜市", "LocName": "神奈川県/横浜市/港北区/菊名/四丁目/３番", "fX": 139.63217, "fY": 35.51028, "iConf": 5, "iLvl": 7, "field_10": null, "field_11": null, "field_12": null }, "geometry": { "type": "Point", "coordinates": [ 139.63217, 35.51028 ] } },
{ "type": "Feature", "properties": { "col0": "ファミリーマート上大岡駅前店", "col1": "神奈川県横浜市港南区上大岡西一丁目１６番２５号上大岡ファースト", "col2": null, "col3": "横浜市", "LocName": "神奈川県/横浜市/港南区/上大岡西/一丁目/１６番", "fX": 139.59534, "fY": 35.40815, "iConf": 5, "iLvl": 7, "field_10": null, "field_11": null, "field_12": null }, "geometry": { "type": "Point", "coordinates": [ 139.59534, 35.40815 ] } },
{ "type": "Feature", "properties": { "col0": "ファミリーマート丸山台三丁目店", "col1": "神奈川県横浜市港南区丸山台三丁目２１−１", "col2": null, "col3": "横浜市", "LocName": "神奈川県/横浜市/港南区/丸山台/三丁目/２１番", "fX": 139.56848, "fY": 35.39888, "iConf": 5, "iLvl": 7, "field_10": null, "field_11": null, "field_12": null }, "geometry": { "type": "Point", "coordinates": [ 139.56848, 35.39888 ] } },
{ "type": "Feature", "properties": { "col0": "ファミリーマート港南中央通店", "col1": "神奈川県横浜市港南区港南中央通８−４１", "col2": null, "col3": "横浜市", "LocName": "神奈川県/横浜市/港南区/港南中央通/８番", "fX": 139.58987, "fY": 35.40008, "iConf": 5, "iLvl": 7, "field_10": null, "field_11": null, "field_12": null }, "geometry": { "type": "Point", "coordinates": [ 139.58987, 35.40008 ] } },
{ "type": "Feature", "properties": { "col0": "ファミリーマート港南台七丁目店", "col1": "神奈川県横浜市港南区港南台７−９−１", "col2": null, "col3": "横浜市", "LocName": "神奈川県/横浜市/港南区/港南台/七丁目/９番", "fX": 139.58746, "fY": 35.37364, "iConf": 5, "iLvl": 7, "field_10": null, "field_11": null, "field_12": null }, "geometry": { "type": "Point", "coordinates": [ 139.58746, 35.37364 ] } },
{ "type": "Feature", "properties": { "col0": "ファミリーマート横浜南高校前店", "col1": "神奈川県横浜市港南区港南２−２８−３０", "col2": null, "col3": "横浜市", "LocName": "神奈川県/横浜市/港南区/港南/二丁目/２８番", "fX": 139.58235, "fY": 35.40538, "iConf": 5, "iLvl": 7, "field_10": null, "field_11": null, "field_12": null }, "geometry": { "type": "Point", "coordinates": [ 139.58235, 35.40538 ] } },
{ "type": "Feature", "properties": { "col0": "ファミリーマート横浜野庭店", "col1": "神奈川県横浜市港南区野庭町１２６６", "col2": null, "col3": "横浜市", "LocName": "神奈川県/横浜市/港南区/野庭町/１２６６番地", "fX": 139.57143, "fY": 35.39159, "iConf": 5, "iLvl": 7, "field_10": null, "field_11": null, "field_12": null }, "geometry": { "type": "Point", "coordinates": [ 139.57143, 35.39159 ] } },
{ "type": "Feature", "properties": { "col0": "ファミリーマート下瀬谷二丁目店", "col1": "神奈川県横浜市瀬谷区下瀬谷２−１７", "col2": null, "col3": "横浜市", "LocName": "神奈川県/横浜市/瀬谷区/下瀬谷/二丁目/１７番", "fX": 139.48074, "fY": 35.45742, "iConf": 5, "iLvl": 7, "field_10": null, "field_11": null, "field_12": null }, "geometry": { "type": "Point", "coordinates": [ 139.48074, 35.45742 ] } },
{ "type": "Feature", "properties": { "col0": "ファミリーマート磯子新杉田店", "col1": "神奈川県横浜市磯子区新杉田町５", "col2": null, "col3": "横浜市", "LocName": "神奈川県/横浜市/磯子区/新杉田町/５番地", "fX": 139.61797, "fY": 35.38853, "iConf": 5, "iLvl": 7, "field_10": null, "field_11": null, "field_12": null }, "geometry": { "type": "Point", "coordinates": [ 139.61797, 35.38853 ] } },
{ "type": "Feature", "properties": { "col0": "ファミリーマート根岸駅北店", "col1": "神奈川県横浜市磯子区東町１１−１０", "col2": null, "col3": "横浜市", "LocName": "神奈川県/横浜市/磯子区/東町/１１番", "fX": 139.63707, "fY": 35.41763, "iConf": 5, "iLvl": 7, "field_10": null, "field_11": null, "field_12": null }, "geometry": { "type": "Point", "coordinates": [ 139.63707, 35.41763 ] } },
{ "type": "Feature", "properties": { "col0": "ファミリーマート磯子滝頭三丁目店", "col1": "神奈川県横浜市磯子区滝頭三丁目１番４２号", "col2": null, "col3": "横浜市", "LocName": "神奈川県/横浜市/磯子区/滝頭/三丁目/１番", "fX": 139.62439, "fY": 35.42083, "iConf": 5, "iLvl": 7, "field_10": null, "field_11": null, "field_12": null }, "geometry": { "type": "Point", "coordinates": [ 139.62439, 35.42083 ] } },
{ "type": "Feature", "properties": { "col0": "ファミリーマート横浜沢渡店", "col1": "神奈川県横浜市神奈川区沢渡２番地２", "col2": null, "col3": "横浜市", "LocName": "神奈川県/横浜市/神奈川区/沢渡/２番地", "fX": 139.61861, "fY": 35.47106, "iConf": 5, "iLvl": 7, "field_10": null, "field_11": null, "field_12": null }, "geometry": { "type": "Point", "coordinates": [ 139.61861, 35.47106 ] } },
{ "type": "Feature", "properties": { "col0": "ファミリーマート白楽駅前店", "col1": "神奈川県横浜市神奈川区白楽１００", "col2": null, "col3": "横浜市", "LocName": "神奈川県/横浜市/神奈川区/白楽/１００番地", "fX": 139.62854, "fY": 35.48817, "iConf": 5, "iLvl": 7, "field_10": null, "field_11": null, "field_12": null }, "geometry": { "type": "Point", "coordinates": [ 139.62854, 35.48817 ] } },
{ "type": "Feature", "properties": { "col0": "ファミリーマート横浜西寺尾一丁目店", "col1": "神奈川県横浜市神奈川区西寺尾一丁目１８−２", "col2": null, "col3": "横浜市", "LocName": "神奈川県/横浜市/神奈川区/西寺尾/一丁目/１８番", "fX": 139.64381, "fY": 35.50196, "iConf": 5, "iLvl": 7, "field_10": null, "field_11": null, "field_12": null }, "geometry": { "type": "Point", "coordinates": [ 139.64381, 35.50196 ] } },
{ "type": "Feature", "properties": { "col0": "ファミリーマート西寺尾二丁目店", "col1": "神奈川県横浜市神奈川区西寺尾２−３１−１７", "col2": null, "col3": "横浜市", "LocName": "神奈川県/横浜市/神奈川区/西寺尾/二丁目/３１番", "fX": 139.64943, "fY": 35.49879, "iConf": 5, "iLvl": 7, "field_10": null, "field_11": null, "field_12": null }, "geometry": { "type": "Point", "coordinates": [ 139.64943, 35.49879 ] } },
{ "type": "Feature", "properties": { "col0": "ファミリーマート横浜青木町店", "col1": "神奈川県横浜市神奈川区青木町１０−２オリマツビル", "col2": null, "col3": "横浜市", "LocName": "神奈川県/横浜市/神奈川区/青木町/１０番地", "fX": 139.63165, "fY": 35.4721, "iConf": 5, "iLvl": 7, "field_10": null, "field_11": null, "field_12": null }, "geometry": { "type": "Point", "coordinates": [ 139.63165, 35.4721 ] } },
{ "type": "Feature", "properties": { "col0": "ファミリーマート鶴屋町店", "col1": "神奈川県横浜市神奈川区鶴屋町１−２−４", "col2": null, "col3": "横浜市", "LocName": "神奈川県/横浜市/神奈川区/鶴屋町/一丁目/２番地", "fX": 139.62415, "fY": 35.46969, "iConf": 5, "iLvl": 7, "field_10": null, "field_11": null, "field_12": null }, "geometry": { "type": "Point", "coordinates": [ 139.62415, 35.46969 ] } },
{ "type": "Feature", "properties": { "col0": "ファミリーマート中山駅北店", "col1": "神奈川県横浜市緑区中山一丁目５番３号", "col2": null, "col3": "横浜市", "LocName": "神奈川県/横浜市/緑区/中山/一丁目/５番", "fX": 139.54158, "fY": 35.51462, "iConf": 5, "iLvl": 7, "field_10": null, "field_11": null, "field_12": null }, "geometry": { "type": "Point", "coordinates": [ 139.54158, 35.51462 ] } },
{ "type": "Feature", "properties": { "col0": "ファミリーマート竹山団地店", "col1": "神奈川県横浜市緑区竹山１−１９−２", "col2": null, "col3": "横浜市", "LocName": "神奈川県/横浜市/緑区/竹山/一丁目/１９番", "fX": 139.56032, "fY": 35.5005, "iConf": 5, "iLvl": 7, "field_10": null, "field_11": null, "field_12": null }, "geometry": { "type": "Point", "coordinates": [ 139.56032, 35.5005 ] } },
{ "type": "Feature", "properties": { "col0": "ファミリーマート西八朔町店", "col1": "神奈川県横浜市緑区西八朔町１２０１−１", "col2": null, "col3": "横浜市", "LocName": "神奈川県/横浜市/緑区/西八朔町/１２０１番地", "fX": 139.52829, "fY": 35.53262, "iConf": 5, "iLvl": 7, "field_10": null, "field_11": null, "field_12": null }, "geometry": { "type": "Point", "coordinates": [ 139.52829, 35.53262 ] } },
{ "type": "Feature", "properties": { "col0": "ファミリーマート横浜鴨居駅前店", "col1": "神奈川県横浜市緑区鴨居一丁目１５番７号", "col2": null, "col3": "横浜市", "LocName": "神奈川県/横浜市/緑区/鴨居/一丁目/１５番", "fX": 139.56644, "fY": 35.51159, "iConf": 5, "iLvl": 7, "field_10": null, "field_11": null, "field_12": null }, "geometry": { "type": "Point", "coordinates": [ 139.56644, 35.51159 ] } },
{ "type": "Feature", "properties": { "col0": "ファミリーマートクイーンズスクエア横浜店", "col1": "神奈川県横浜市西区みなとみらい２−３−８", "col2": null, "col3": "横浜市", "LocName": "神奈川県/横浜市/西区/みなとみらい/二丁目/３番", "fX": 139.63402, "fY": 35.45666, "iConf": 5, "iLvl": 7, "field_10": null, "field_11": null, "field_12": null }, "geometry": { "type": "Point", "coordinates": [ 139.63402, 35.45666 ] } },
{ "type": "Feature", "properties": { "col0": "ファミリーマート横浜駅西口店", "col1": "神奈川県横浜市西区北幸二丁目２番地６", "col2": null, "col3": "横浜市", "LocName": "神奈川県/横浜市/西区/北幸/二丁目/２番", "fX": 139.6172, "fY": 35.46593, "iConf": 5, "iLvl": 7, "field_10": null, "field_11": null, "field_12": null }, "geometry": { "type": "Point", "coordinates": [ 139.6172, 35.46593 ] } },
{ "type": "Feature", "properties": { "col0": "ファミリーマート横浜浅間町店", "col1": "神奈川県横浜市西区浅間町３−１７４−２", "col2": null, "col3": "横浜市", "LocName": "神奈川県/横浜市/西区/浅間町/三丁目/１７４番地", "fX": 139.60959, "fY": 35.46199, "iConf": 5, "iLvl": 7, "field_10": null, "field_11": null, "field_12": null }, "geometry": { "type": "Point", "coordinates": [ 139.60959, 35.46199 ] } },
{ "type": "Feature", "properties": { "col0": "ファミリーマートｔｖｋｅｃｏｍｐａｒｋ店", "col1": "神奈川県横浜市西区西平沼町６番１号", "col2": null, "col3": "横浜市", "LocName": "神奈川県/横浜市/西区/西平沼町/６番", "fX": 139.6115, "fY": 35.45654, "iConf": 5, "iLvl": 7, "field_10": null, "field_11": null, "field_12": null }, "geometry": { "type": "Point", "coordinates": [ 139.6115, 35.45654 ] } },
{ "type": "Feature", "properties": { "col0": "ファミリーマートセンター北店", "col1": "神奈川県横浜市都筑区中川中央１丁目１番１号", "col2": null, "col3": "横浜市", "LocName": "神奈川県/横浜市/都筑区/中川中央/一丁目/１番", "fX": 139.57835, "fY": 35.55347, "iConf": 5, "iLvl": 7, "field_10": null, "field_11": null, "field_12": null }, "geometry": { "type": "Point", "coordinates": [ 139.57835, 35.55347 ] } },
{ "type": "Feature", "properties": { "col0": "ファミリーマート都筑北山田店", "col1": "神奈川県横浜市都筑区北山田２−１−１", "col2": null, "col3": "横浜市", "LocName": "神奈川県/横浜市/都筑区/北山田/二丁目/１番", "fX": 139.59215, "fY": 35.56079, "iConf": 5, "iLvl": 7, "field_10": null, "field_11": null, "field_12": null }, "geometry": { "type": "Point", "coordinates": [ 139.59215, 35.56079 ] } },
{ "type": "Feature", "properties": { "col0": "ファミリーマート南山田三丁目店", "col1": "神奈川県横浜市都筑区南山田３−７−１", "col2": null, "col3": "横浜市", "LocName": "神奈川県/横浜市/都筑区/南山田/三丁目/７番", "fX": 139.60022, "fY": 35.55704, "iConf": 5, "iLvl": 7, "field_10": null, "field_11": null, "field_12": null }, "geometry": { "type": "Point", "coordinates": [ 139.60022, 35.55704 ] } },
{ "type": "Feature", "properties": { "col0": "ファミリーマート新栄町店", "col1": "神奈川県横浜市都筑区新栄町１３", "col2": null, "col3": "横浜市", "LocName": "神奈川県/横浜市/都筑区/新栄町/１３番", "fX": 139.59642, "fY": 35.54017, "iConf": 5, "iLvl": 7, "field_10": null, "field_11": null, "field_12": null }, "geometry": { "type": "Point", "coordinates": [ 139.59642, 35.54017 ] } },
{ "type": "Feature", "properties": { "col0": "ファミリーマート松山金沢文庫店", "col1": "神奈川県横浜市金沢区寺前１丁目３番８号", "col2": null, "col3": "横浜市", "LocName": "神奈川県/横浜市/金沢区/寺前/一丁目/３番", "fX": 139.62437, "fY": 35.34083, "iConf": 5, "iLvl": 7, "field_10": null, "field_11": null, "field_12": null }, "geometry": { "type": "Point", "coordinates": [ 139.62437, 35.34083 ] } },
{ "type": "Feature", "properties": { "col0": "ファミリーマート幸浦二丁目店", "col1": "神奈川県横浜市金沢区幸浦２−１−２０", "col2": null, "col3": "横浜市", "LocName": "神奈川県/横浜市/金沢区/幸浦/二丁目/１番", "fX": 139.64508, "fY": 35.36285, "iConf": 5, "iLvl": 7, "field_10": null, "field_11": null, "field_12": null }, "geometry": { "type": "Point", "coordinates": [ 139.64508, 35.36285 ] } },
{ "type": "Feature", "properties": { "col0": "ファミリーマート油屋横浜八景島店", "col1": "神奈川県横浜市金沢区柴町３４５−５", "col2": null, "col3": "横浜市", "LocName": "神奈川県/横浜市/金沢区/柴町/３４５番地", "fX": 139.63817, "fY": 35.3446, "iConf": 5, "iLvl": 7, "field_10": null, "field_11": null, "field_12": null }, "geometry": { "type": "Point", "coordinates": [ 139.63817, 35.3446 ] } },
{ "type": "Feature", "properties": { "col0": "ファミリーマート松山釜利谷店", "col1": "神奈川県横浜市金沢区釜利谷東２−５−１５", "col2": null, "col3": "横浜市", "LocName": "神奈川県/横浜市/金沢区/釜利谷東/二丁目/５番", "fX": 139.61563, "fY": 35.34376, "iConf": 5, "iLvl": 7, "field_10": null, "field_11": null, "field_12": null }, "geometry": { "type": "Point", "coordinates": [ 139.61563, 35.34376 ] } },
{ "type": "Feature", "properties": { "col0": "ファミリーマートたまプラーザ店", "col1": "神奈川県横浜市青葉区美しが丘２−１４−３", "col2": null, "col3": "横浜市", "LocName": "神奈川県/横浜市/青葉区/美しが丘/二丁目/１４番", "fX": 139.56009, "fY": 35.57925, "iConf": 5, "iLvl": 7, "field_10": null, "field_11": null, "field_12": null }, "geometry": { "type": "Point", "coordinates": [ 139.56009, 35.57925 ] } },
{ "type": "Feature", "properties": { "col0": "ファミリーマート藤が丘駅東店", "col1": "神奈川県横浜市青葉区藤が丘１丁目２９−２", "col2": null, "col3": "横浜市", "LocName": "神奈川県/横浜市/青葉区/藤が丘/一丁目/２９番", "fX": 139.52859, "fY": 35.54427, "iConf": 5, "iLvl": 7, "field_10": null, "field_11": null, "field_12": null }, "geometry": { "type": "Point", "coordinates": [ 139.52859, 35.54427 ] } },
{ "type": "Feature", "properties": { "col0": "ファミリーマート鶴見旭台店", "col1": "神奈川県横浜市鶴見区下末吉１丁目２１番７号", "col2": null, "col3": "横浜市", "LocName": "神奈川県/横浜市/鶴見区/下末吉/一丁目/２１番", "fX": 139.66902, "fY": 35.51819, "iConf": 5, "iLvl": 7, "field_10": null, "field_11": null, "field_12": null }, "geometry": { "type": "Point", "coordinates": [ 139.66902, 35.51819 ] } },
{ "type": "Feature", "properties": { "col0": "ファミリーマート横浜鶴見元宮店", "col1": "神奈川県横浜市鶴見区元宮２丁目１番７０号", "col2": null, "col3": "横浜市", "LocName": "神奈川県/横浜市/鶴見区/元宮/二丁目/１番", "fX": 139.67787, "fY": 35.52248, "iConf": 5, "iLvl": 7, "field_10": null, "field_11": null, "field_12": null }, "geometry": { "type": "Point", "coordinates": [ 139.67787, 35.52248 ] } },
{ "type": "Feature", "properties": { "col0": "ファミリーマート岸谷店", "col1": "神奈川県横浜市鶴見区岸谷１−２６−９", "col2": null, "col3": "横浜市", "LocName": "神奈川県/横浜市/鶴見区/岸谷/一丁目/２６番", "fX": 139.66597, "fY": 35.49681, "iConf": 5, "iLvl": 7, "field_10": null, "field_11": null, "field_12": null }, "geometry": { "type": "Point", "coordinates": [ 139.66597, 35.49681 ] } },
{ "type": "Feature", "properties": { "col0": "ファミリーマート東寺尾中台店", "col1": "神奈川県横浜市鶴見区東寺尾中台１３−１７", "col2": null, "col3": "横浜市", "LocName": "神奈川県/横浜市/鶴見区/東寺尾中台/１３番", "fX": 139.66397, "fY": 35.51024, "iConf": 5, "iLvl": 7, "field_10": null, "field_11": null, "field_12": null }, "geometry": { "type": "Point", "coordinates": [ 139.66397, 35.51024 ] } },
{ "type": "Feature", "properties": { "col0": "ファミリーマート鶴見西口店", "col1": "神奈川県横浜市鶴見区豊岡町８−２０", "col2": null, "col3": "横浜市", "LocName": "神奈川県/横浜市/鶴見区/豊岡町/８番", "fX": 139.67433, "fY": 35.50843, "iConf": 5, "iLvl": 7, "field_10": null, "field_11": null, "field_12": null }, "geometry": { "type": "Point", "coordinates": [ 139.67433, 35.50843 ] } },
{ "type": "Feature", "properties": { "col0": "ファミリーマート横浜駒岡三丁目店", "col1": "神奈川県横浜市鶴見区駒岡三丁目１８−１０", "col2": null, "col3": "横浜市", "LocName": "神奈川県/横浜市/鶴見区/駒岡/三丁目/１８番", "fX": 139.653, "fY": 35.5293, "iConf": 5, "iLvl": 7, "field_10": null, "field_11": null, "field_12": null }, "geometry": { "type": "Point", "coordinates": [ 139.653, 35.5293 ] } },
{ "type": "Feature", "properties": { "col0": "ファミリーマート京急鶴見駅前店", "col1": "神奈川県横浜市鶴見区鶴見中央４丁目２３−９藤ビル１階", "col2": null, "col3": "横浜市", "LocName": "神奈川県/横浜市/鶴見区/鶴見中央/四丁目/２３番", "fX": 139.67847, "fY": 35.50714, "iConf": 5, "iLvl": 7, "field_10": null, "field_11": null, "field_12": null }, "geometry": { "type": "Point", "coordinates": [ 139.67847, 35.50714 ] } },
{ "type": "Feature", "properties": { "col0": "ファミリーマート武蔵中原駅前店", "col1": "神奈川県川崎市中原区下小田中２−３−１", "col2": null, "col3": "川崎市", "LocName": "神奈川県/川崎市/中原区/下小田中/二丁目/３番", "fX": 139.64151, "fY": 35.57972, "iConf": 5, "iLvl": 7, "field_10": null, "field_11": null, "field_12": null }, "geometry": { "type": "Point", "coordinates": [ 139.64151, 35.57972 ] } },
{ "type": "Feature", "properties": { "col0": "ファミリーマート川崎中丸子店", "col1": "神奈川県川崎市中原区中丸子５４９番１", "col2": null, "col3": "川崎市", "LocName": "神奈川県/川崎市/中原区/中丸子/５４９番地", "fX": 139.67062, "fY": 35.5657, "iConf": 5, "iLvl": 7, "field_10": null, "field_11": null, "field_12": null }, "geometry": { "type": "Point", "coordinates": [ 139.67062, 35.5657 ] } },
{ "type": "Feature", "properties": { "col0": "ファミリーマート小杉法政通り店", "col1": "神奈川県川崎市中原区市ノ坪２６", "col2": null, "col3": "川崎市", "LocName": "神奈川県/川崎市/中原区/市ノ坪/２６番地", "fX": 139.65785, "fY": 35.57333, "iConf": 5, "iLvl": 7, "field_10": null, "field_11": null, "field_12": null }, "geometry": { "type": "Point", "coordinates": [ 139.65785, 35.57333 ] } },
{ "type": "Feature", "properties": { "col0": "ファミリーマート新丸子駅西口店", "col1": "神奈川県川崎市中原区新丸子町７３７−１", "col2": null, "col3": "川崎市", "LocName": "神奈川県/川崎市/中原区/新丸子町/７３７番地", "fX": 139.66174, "fY": 35.58089, "iConf": 5, "iLvl": 7, "field_10": null, "field_11": null, "field_12": null }, "geometry": { "type": "Point", "coordinates": [ 139.66174, 35.58089 ] } },
{ "type": "Feature", "properties": { "col0": "ファミリーマート川崎元住吉店", "col1": "神奈川県川崎市中原区木月１丁目３２番１青木ビル１階", "col2": null, "col3": "川崎市", "LocName": "神奈川県/川崎市/中原区/木月/一丁目/３２番", "fX": 139.65257, "fY": 35.565, "iConf": 5, "iLvl": 7, "field_10": null, "field_11": null, "field_12": null }, "geometry": { "type": "Point", "coordinates": [ 139.65257, 35.565 ] } },
{ "type": "Feature", "properties": { "col0": "ファミリーマート木月三丁目店", "col1": "神奈川県川崎市中原区木月３丁目１７−１５クリフトンコート", "col2": null, "col3": "川崎市", "LocName": "神奈川県/川崎市/中原区/木月/三丁目/１７番", "fX": 139.65071, "fY": 35.56521, "iConf": 5, "iLvl": 7, "field_10": null, "field_11": null, "field_12": null }, "geometry": { "type": "Point", "coordinates": [ 139.65071, 35.56521 ] } },
{ "type": "Feature", "properties": { "col0": "ファミリーマート平間駅前店", "col1": "神奈川県川崎市中原区田尻町２０−１", "col2": null, "col3": "川崎市", "LocName": "神奈川県/川崎市/中原区/田尻町/２０番地", "fX": 139.67159, "fY": 35.56067, "iConf": 5, "iLvl": 7, "field_10": null, "field_11": null, "field_12": null }, "geometry": { "type": "Point", "coordinates": [ 139.67159, 35.56067 ] } },
{ "type": "Feature", "properties": { "col0": "ファミリーマート生田駅東店", "col1": "神奈川県川崎市多摩区生田７−３−１", "col2": null, "col3": "川崎市", "LocName": "神奈川県/川崎市/多摩区/生田/七丁目/３番", "fX": 139.54283, "fY": 35.61494, "iConf": 5, "iLvl": 7, "field_10": null, "field_11": null, "field_12": null }, "geometry": { "type": "Point", "coordinates": [ 139.54283, 35.61494 ] } },
{ "type": "Feature", "properties": { "col0": "ファミリーマート登戸新町店", "col1": "神奈川県川崎市多摩区登戸新町３７５番地", "col2": null, "col3": "川崎市", "LocName": "神奈川県/川崎市/多摩区/登戸新町/３７５番地", "fX": 139.56516, "fY": 35.6222, "iConf": 5, "iLvl": 7, "field_10": null, "field_11": null, "field_12": null }, "geometry": { "type": "Point", "coordinates": [ 139.56516, 35.6222 ] } },
{ "type": "Feature", "properties": { "col0": "ファミリーマート登戸駅前店", "col1": "神奈川県川崎市多摩区登戸３４６５いろはビル１階", "col2": null, "col3": "川崎市", "LocName": "神奈川県/川崎市/多摩区/登戸/３４６５番地", "fX": 139.57018, "fY": 35.62019, "iConf": 5, "iLvl": 7, "field_10": null, "field_11": null, "field_12": null }, "geometry": { "type": "Point", "coordinates": [ 139.57018, 35.62019 ] } },
{ "type": "Feature", "properties": { "col0": "ファミリーマート稲田堤駅前店", "col1": "神奈川県川崎市多摩区菅稲田堤１−３", "col2": null, "col3": "川崎市", "LocName": "神奈川県/川崎市/多摩区/菅稲田堤/一丁目/３番", "fX": 139.53578, "fY": 35.6342, "iConf": 5, "iLvl": 7, "field_10": null, "field_11": null, "field_12": null }, "geometry": { "type": "Point", "coordinates": [ 139.53578, 35.6342 ] } },
{ "type": "Feature", "properties": { "col0": "ファミリーマート川崎宮前南平台店", "col1": "神奈川県川崎市宮前区南平台１８−１３", "col2": null, "col3": "川崎市", "LocName": "神奈川県/川崎市/宮前区/南平台/１８番", "fX": 139.57065, "fY": 35.59491, "iConf": 5, "iLvl": 7, "field_10": null, "field_11": null, "field_12": null }, "geometry": { "type": "Point", "coordinates": [ 139.57065, 35.59491 ] } },
{ "type": "Feature", "properties": { "col0": "ファミリーマート宮前小台一丁目店", "col1": "神奈川県川崎市宮前区小台１−１５−６", "col2": null, "col3": "川崎市", "LocName": "神奈川県/川崎市/宮前区/小台/一丁目/１５番", "fX": 139.57663, "fY": 35.57961, "iConf": 5, "iLvl": 7, "field_10": null, "field_11": null, "field_12": null }, "geometry": { "type": "Point", "coordinates": [ 139.57663, 35.57961 ] } },
{ "type": "Feature", "properties": { "col0": "ファミリーマート有馬二丁目店", "col1": "神奈川県川崎市宮前区有馬２丁目８‐８", "col2": null, "col3": "川崎市", "LocName": "神奈川県/川崎市/宮前区/有馬/二丁目/８番", "fX": 139.58487, "fY": 35.57908, "iConf": 5, "iLvl": 7, "field_10": null, "field_11": null, "field_12": null }, "geometry": { "type": "Point", "coordinates": [ 139.58487, 35.57908 ] } },
{ "type": "Feature", "properties": { "col0": "ファミリーマート水沢三丁目店", "col1": "神奈川県川崎市宮前区水沢三丁目１２−２", "col2": null, "col3": "川崎市", "LocName": "神奈川県/川崎市/宮前区/水沢/三丁目/１２番", "fX": 139.54082, "fY": 35.59396, "iConf": 5, "iLvl": 7, "field_10": null, "field_11": null, "field_12": null }, "geometry": { "type": "Point", "coordinates": [ 139.54082, 35.59396 ] } },
{ "type": "Feature", "properties": { "col0": "ファミリーマート大島三丁目店", "col1": "神奈川県川崎市川崎区大島３丁目１７−１２", "col2": null, "col3": "川崎市", "LocName": "神奈川県/川崎市/川崎区/大島/三丁目/１７番", "fX": 139.71802, "fY": 35.51871, "iConf": 5, "iLvl": 7, "field_10": null, "field_11": null, "field_12": null }, "geometry": { "type": "Point", "coordinates": [ 139.71802, 35.51871 ] } },
{ "type": "Feature", "properties": { "col0": "ファミリーマート川崎大師駅前二丁目店", "col1": "神奈川県川崎市川崎区大師駅前二丁目１１番１３", "col2": null, "col3": "川崎市", "LocName": "神奈川県/川崎市/川崎区/大師駅前/二丁目/１１番", "fX": 139.72433, "fY": 35.53324, "iConf": 5, "iLvl": 7, "field_10": null, "field_11": null, "field_12": null }, "geometry": { "type": "Point", "coordinates": [ 139.72433, 35.53324 ] } },
{ "type": "Feature", "properties": { "col0": "ファミリーマートなわてや八丁畷店", "col1": "神奈川県川崎市川崎区池田１−１５−５−１０１", "col2": null, "col3": "川崎市", "LocName": "神奈川県/川崎市/川崎区/池田/一丁目/１５番", "fX": 139.69229, "fY": 35.52311, "iConf": 5, "iLvl": 7, "field_10": null, "field_11": null, "field_12": null }, "geometry": { "type": "Point", "coordinates": [ 139.69229, 35.52311 ] } },
{ "type": "Feature", "properties": { "col0": "ファミリーマート川崎田町店", "col1": "神奈川県川崎市川崎区田町一丁目３−１２", "col2": null, "col3": "川崎市", "LocName": "神奈川県/川崎市/川崎区/田町/一丁目/３番", "fX": 139.74173, "fY": 35.53516, "iConf": 5, "iLvl": 7, "field_10": null, "field_11": null, "field_12": null }, "geometry": { "type": "Point", "coordinates": [ 139.74173, 35.53516 ] } },
{ "type": "Feature", "properties": { "col0": "ファミリーマートアスロード川崎ロイネット店", "col1": "神奈川県川崎市川崎区砂子２丁目６−１５", "col2": null, "col3": "川崎市", "LocName": "神奈川県/川崎市/川崎区/砂子/二丁目/６番", "fX": 139.70001, "fY": 35.52872, "iConf": 5, "iLvl": 7, "field_10": null, "field_11": null, "field_12": null }, "geometry": { "type": "Point", "coordinates": [ 139.70001, 35.52872 ] } },
{ "type": "Feature", "properties": { "col0": "ファミリーマート観音二丁目店", "col1": "神奈川県川崎市川崎区観音２丁目１番１４号", "col2": null, "col3": "川崎市", "LocName": "神奈川県/川崎市/川崎区/観音/二丁目/１番", "fX": 139.72845, "fY": 35.52584, "iConf": 5, "iLvl": 7, "field_10": null, "field_11": null, "field_12": null }, "geometry": { "type": "Point", "coordinates": [ 139.72845, 35.52584 ] } },
{ "type": "Feature", "properties": { "col0": "ファミリーマート川崎貝塚一丁目店", "col1": "神奈川県川崎市川崎区貝塚１丁目１番１号", "col2": null, "col3": "川崎市", "LocName": "神奈川県/川崎市/川崎区/貝塚/一丁目/１番", "fX": 139.70277, "fY": 35.52623, "iConf": 5, "iLvl": 7, "field_10": null, "field_11": null, "field_12": null }, "geometry": { "type": "Point", "coordinates": [ 139.70277, 35.52623 ] } },
{ "type": "Feature", "properties": { "col0": "ファミリーマート中幸町三丁目店", "col1": "神奈川県川崎市幸区中幸町３丁目３番２", "col2": null, "col3": "川崎市", "LocName": "神奈川県/川崎市/幸区/中幸町/三丁目/３番地", "fX": 139.69469, "fY": 35.53507, "iConf": 5, "iLvl": 7, "field_10": null, "field_11": null, "field_12": null }, "geometry": { "type": "Point", "coordinates": [ 139.69469, 35.53507 ] } },
{ "type": "Feature", "properties": { "col0": "ファミリーマート川崎駅西店", "col1": "神奈川県川崎市幸区中幸町４−５０−５", "col2": null, "col3": "川崎市", "LocName": "神奈川県/川崎市/幸区/中幸町/四丁目/５０番地", "fX": 139.69283, "fY": 35.53195, "iConf": 5, "iLvl": 7, "field_10": null, "field_11": null, "field_12": null }, "geometry": { "type": "Point", "coordinates": [ 139.69283, 35.53195 ] } },
{ "type": "Feature", "properties": { "col0": "ファミリーマート川崎南幸町店", "col1": "神奈川県川崎市幸区南幸町一丁目７番地５", "col2": null, "col3": "川崎市", "LocName": "神奈川県/川崎市/幸区/南幸町/一丁目/７番地", "fX": 139.69154, "fY": 35.53537, "iConf": 5, "iLvl": 7, "field_10": null, "field_11": null, "field_12": null }, "geometry": { "type": "Point", "coordinates": [ 139.69154, 35.53537 ] } },
{ "type": "Feature", "properties": { "col0": "ファミリーマート矢向駅西店", "col1": "神奈川県川崎市幸区塚越３丁目４０３番６", "col2": null, "col3": "川崎市", "LocName": "神奈川県/川崎市/幸区/塚越/三丁目/４０３番地", "fX": 139.67862, "fY": 35.54216, "iConf": 5, "iLvl": 7, "field_10": null, "field_11": null, "field_12": null }, "geometry": { "type": "Point", "coordinates": [ 139.67862, 35.54216 ] } },
{ "type": "Feature", "properties": { "col0": "ファミリーマート小向西町一丁目店", "col1": "神奈川県川崎市幸区小向西町１丁目１０番地", "col2": null, "col3": "川崎市", "LocName": "神奈川県/川崎市/幸区/小向西町/一丁目/１０番地", "fX": 139.69135, "fY": 35.54856, "iConf": 5, "iLvl": 7, "field_10": null, "field_11": null, "field_12": null }, "geometry": { "type": "Point", "coordinates": [ 139.69135, 35.54856 ] } },
{ "type": "Feature", "properties": { "col0": "ファミリーマートパークタワー新川崎店", "col1": "神奈川県川崎市幸区鹿島田１−１−５−３０２", "col2": null, "col3": "川崎市", "LocName": "神奈川県/川崎市/幸区/鹿島田/一丁目/１番", "fX": 139.67383, "fY": 35.55024, "iConf": 5, "iLvl": 7, "field_10": null, "field_11": null, "field_12": null }, "geometry": { "type": "Point", "coordinates": [ 139.67383, 35.55024 ] } },
{ "type": "Feature", "properties": { "col0": "ファミリーマート上作延店", "col1": "神奈川県川崎市高津区上作延２丁目１番２４号", "col2": null, "col3": "川崎市", "LocName": "神奈川県/川崎市/高津区/上作延/二丁目/１番", "fX": 139.59245, "fY": 35.60038, "iConf": 5, "iLvl": 7, "field_10": null, "field_11": null, "field_12": null }, "geometry": { "type": "Point", "coordinates": [ 139.59245, 35.60038 ] } },
{ "type": "Feature", "properties": { "col0": "ファミリーマート二子大通り店", "col1": "神奈川県川崎市高津区二子２−４−１１", "col2": null, "col3": "川崎市", "LocName": "神奈川県/川崎市/高津区/二子/二丁目/４番", "fX": 139.62173, "fY": 35.60744, "iConf": 5, "iLvl": 7, "field_10": null, "field_11": null, "field_12": null }, "geometry": { "type": "Point", "coordinates": [ 139.62173, 35.60744 ] } },
{ "type": "Feature", "properties": { "col0": "ファミリーマート川崎高津千年店", "col1": "神奈川県川崎市高津区千年４０", "col2": null, "col3": "川崎市", "LocName": "神奈川県/川崎市/高津区/千年/４０番地", "fX": 139.62318, "fY": 35.57254, "iConf": 5, "iLvl": 7, "field_10": null, "field_11": null, "field_12": null }, "geometry": { "type": "Point", "coordinates": [ 139.62318, 35.57254 ] } },
{ "type": "Feature", "properties": { "col0": "ファミリーマート川崎新作五丁目店", "col1": "神奈川県川崎市高津区新作５丁目４番７号", "col2": null, "col3": "川崎市", "LocName": "神奈川県/川崎市/高津区/新作/五丁目/４番", "fX": 139.62231, "fY": 35.58688, "iConf": 5, "iLvl": 7, "field_10": null, "field_11": null, "field_12": null }, "geometry": { "type": "Point", "coordinates": [ 139.62231, 35.58688 ] } },
{ "type": "Feature", "properties": { "col0": "ファミリーマート川崎第三京浜入口店", "col1": "神奈川県川崎市高津区末長４丁目９番１１号", "col2": null, "col3": "川崎市", "LocName": "神奈川県/川崎市/高津区/末長/四丁目/９番", "fX": 139.62305, "fY": 35.59046, "iConf": 5, "iLvl": 7, "field_10": null, "field_11": null, "field_12": null }, "geometry": { "type": "Point", "coordinates": [ 139.62305, 35.59046 ] } },
{ "type": "Feature", "properties": { "col0": "ファミリーマート山中屋高津駅前店", "col1": "神奈川県川崎市高津区溝口４−５−５", "col2": null, "col3": "川崎市", "LocName": "神奈川県/川崎市/高津区/溝口/四丁目/５番", "fX": 139.61603, "fY": 35.60366, "iConf": 5, "iLvl": 7, "field_10": null, "field_11": null, "field_12": null }, "geometry": { "type": "Point", "coordinates": [ 139.61603, 35.60366 ] } },
{ "type": "Feature", "properties": { "col0": "ファミリーマート新百合ケ丘駅前店", "col1": "神奈川県川崎市麻生区万福寺１−１６−７", "col2": null, "col3": "川崎市", "LocName": "神奈川県/川崎市/麻生区/万福寺/一丁目/１６番", "fX": 139.50755, "fY": 35.60492, "iConf": 5, "iLvl": 7, "field_10": null, "field_11": null, "field_12": null }, "geometry": { "type": "Point", "coordinates": [ 139.50755, 35.60492 ] } },
{ "type": "Feature", "properties": { "col0": "ファミリーマート百合ヶ丘駅南口店", "col1": "神奈川県川崎市麻生区百合丘１−１−２８", "col2": null, "col3": "川崎市", "LocName": "神奈川県/川崎市/麻生区/百合丘/一丁目/１番", "fX": 139.51663, "fY": 35.60861, "iConf": 5, "iLvl": 7, "field_10": null, "field_11": null, "field_12": null }, "geometry": { "type": "Point", "coordinates": [ 139.51663, 35.60861 ] } },
{ "type": "Feature", "properties": { "col0": "ファミリーマート横須賀三春町店", "col1": "神奈川県横須賀市三春町１−２１", "col2": null, "col3": "横須賀市", "LocName": "神奈川県/横須賀市/三春町/一丁目/２１番地", "fX": 139.68228, "fY": 35.26861, "iConf": 5, "iLvl": 7, "field_10": null, "field_11": null, "field_12": null }, "geometry": { "type": "Point", "coordinates": [ 139.68228, 35.26861 ] } },
{ "type": "Feature", "properties": { "col0": "ファミリーマート京急久里浜駅前店", "col1": "神奈川県横須賀市久里浜１−５−８ＳＴビル", "col2": null, "col3": "横須賀市", "LocName": "神奈川県/横須賀市/久里浜/一丁目/５番", "fX": 139.70155, "fY": 35.23098, "iConf": 5, "iLvl": 7, "field_10": null, "field_11": null, "field_12": null }, "geometry": { "type": "Point", "coordinates": [ 139.70155, 35.23098 ] } },
{ "type": "Feature", "properties": { "col0": "ファミリーマート松山公郷店", "col1": "神奈川県横須賀市公郷町２丁目２２番", "col2": null, "col3": "横須賀市", "LocName": "神奈川県/横須賀市/公郷町/二丁目/２２番地", "fX": 139.66725, "fY": 35.25628, "iConf": 5, "iLvl": 7, "field_10": null, "field_11": null, "field_12": null }, "geometry": { "type": "Point", "coordinates": [ 139.66725, 35.25628 ] } },
{ "type": "Feature", "properties": { "col0": "ファミリーマートたかはし吉井店", "col1": "神奈川県横須賀市吉井３−１３−９", "col2": null, "col3": "横須賀市", "LocName": "神奈川県/横須賀市/吉井/三丁目/１３番", "fX": 139.69962, "fY": 35.25134, "iConf": 5, "iLvl": 7, "field_10": null, "field_11": null, "field_12": null }, "geometry": { "type": "Point", "coordinates": [ 139.69962, 35.25134 ] } },
{ "type": "Feature", "properties": { "col0": "ファミリーマート横須賀大津町店", "col1": "神奈川県横須賀市大津町２丁目３番７号", "col2": null, "col3": "横須賀市", "LocName": "神奈川県/横須賀市/大津町/二丁目/３番", "fX": 139.69859, "fY": 35.26154, "iConf": 5, "iLvl": 7, "field_10": null, "field_11": null, "field_12": null }, "geometry": { "type": "Point", "coordinates": [ 139.69859, 35.26154 ] } },
{ "type": "Feature", "properties": { "col0": "ファミリーマート横須賀中央店", "col1": "神奈川県横須賀市大滝町２−１２", "col2": null, "col3": "横須賀市", "LocName": "神奈川県/横須賀市/大滝町/二丁目/１２番地", "fX": 139.67064, "fY": 35.28091, "iConf": 5, "iLvl": 7, "field_10": null, "field_11": null, "field_12": null }, "geometry": { "type": "Point", "coordinates": [ 139.67064, 35.28091 ] } },
{ "type": "Feature", "properties": { "col0": "ファミリーマート武山駐屯地南店", "col1": "神奈川県横須賀市御幸浜１−１", "col2": null, "col3": "横須賀市", "LocName": "神奈川県/横須賀市/御幸浜/１番", "fX": 139.6311, "fY": 35.21807, "iConf": 5, "iLvl": 7, "field_10": null, "field_11": null, "field_12": null }, "geometry": { "type": "Point", "coordinates": [ 139.6311, 35.21807 ] } },
{ "type": "Feature", "properties": { "col0": "ファミリーマート横須賀根岸町店", "col1": "神奈川県横須賀市根岸町３−２−８", "col2": null, "col3": "横須賀市", "LocName": "神奈川県/横須賀市/根岸町/三丁目/２番", "fX": 139.685, "fY": 35.25135, "iConf": 5, "iLvl": 7, "field_10": null, "field_11": null, "field_12": null }, "geometry": { "type": "Point", "coordinates": [ 139.685, 35.25135 ] } },
{ "type": "Feature", "properties": { "col0": "ファミリーマート松山横須賀インター店", "col1": "神奈川県横須賀市池上６丁目３−１", "col2": null, "col3": "横須賀市", "LocName": "神奈川県/横須賀市/池上/六丁目/３番", "fX": 139.64113, "fY": 35.26588, "iConf": 5, "iLvl": 7, "field_10": null, "field_11": null, "field_12": null }, "geometry": { "type": "Point", "coordinates": [ 139.64113, 35.26588 ] } },
{ "type": "Feature", "properties": { "col0": "ファミリーマート湘南港が丘店", "col1": "神奈川県横須賀市港が丘１−１", "col2": null, "col3": "横須賀市", "LocName": "神奈川県/横須賀市/港が丘/一丁目/１番", "fX": 139.63069, "fY": 35.29562, "iConf": 5, "iLvl": 7, "field_10": null, "field_11": null, "field_12": null }, "geometry": { "type": "Point", "coordinates": [ 139.63069, 35.29562 ] } },
{ "type": "Feature", "properties": { "col0": "ファミリーマート横須賀市立総合医療センター店", "col1": "神奈川県横須賀市神明町１番８", "col2": null, "col3": "横須賀市", "LocName": "神奈川県/横須賀市/神明町/１番地", "fX": 139.70073, "fY": 35.22433, "iConf": 5, "iLvl": 7, "field_10": null, "field_11": null, "field_12": null }, "geometry": { "type": "Point", "coordinates": [ 139.70073, 35.22433 ] } },
{ "type": "Feature", "properties": { "col0": "ファミリーマート横須賀米が浜店", "col1": "神奈川県横須賀市米が浜通２−１−４", "col2": null, "col3": "横須賀市", "LocName": "神奈川県/横須賀市/米が浜通/二丁目/１番地", "fX": 139.67603, "fY": 35.27697, "iConf": 5, "iLvl": 7, "field_10": null, "field_11": null, "field_12": null }, "geometry": { "type": "Point", "coordinates": [ 139.67603, 35.27697 ] } },
{ "type": "Feature", "properties": { "col0": "ファミリーマート松山横須賀あわた店", "col1": "神奈川県横須賀市粟田２丁目４−９", "col2": null, "col3": "横須賀市", "LocName": "神奈川県/横須賀市/粟田/二丁目/４番", "fX": 139.68413, "fY": 35.22546, "iConf": 5, "iLvl": 7, "field_10": null, "field_11": null, "field_12": null }, "geometry": { "type": "Point", "coordinates": [ 139.68413, 35.22546 ] } },
{ "type": "Feature", "properties": { "col0": "ファミリーマート横須賀船越七丁目店", "col1": "神奈川県横須賀市船越町７−１６", "col2": null, "col3": "横須賀市", "LocName": "神奈川県/横須賀市/船越町/七丁目/１６番地", "fX": 139.63046, "fY": 35.30382, "iConf": 5, "iLvl": 7, "field_10": null, "field_11": null, "field_12": null }, "geometry": { "type": "Point", "coordinates": [ 139.63046, 35.30382 ] } },
{ "type": "Feature", "properties": { "col0": "ファミリーマート横須賀長井一丁目店", "col1": "神奈川県横須賀市長井１−１４−１６", "col2": null, "col3": "横須賀市", "LocName": "神奈川県/横須賀市/長井/一丁目/１４番", "fX": 139.62268, "fY": 35.19876, "iConf": 5, "iLvl": 7, "field_10": null, "field_11": null, "field_12": null }, "geometry": { "type": "Point", "coordinates": [ 139.62268, 35.19876 ] } },
{ "type": "Feature", "properties": { "col0": "ファミリーマート横須賀須軽谷店", "col1": "神奈川県横須賀市須軽谷３０７−１１", "col2": null, "col3": "横須賀市", "LocName": "神奈川県/横須賀市/須軽谷/３０７番地", "fX": 139.64499, "fY": 35.20702, "iConf": 5, "iLvl": 7, "field_10": null, "field_11": null, "field_12": null }, "geometry": { "type": "Point", "coordinates": [ 139.64499, 35.20702 ] } },
{ "type": "Feature", "properties": { "col0": "ファミリーマート小田原国府津店", "col1": "神奈川県小田原市国府津２４９４番地の１", "col2": null, "col3": "小田原市", "LocName": "神奈川県/小田原市/国府津/２４９４番地", "fX": 139.20384, "fY": 35.28092, "iConf": 5, "iLvl": 7, "field_10": null, "field_11": null, "field_12": null }, "geometry": { "type": "Point", "coordinates": [ 139.20384, 35.28092 ] } },
{ "type": "Feature", "properties": { "col0": "ファミリーマート小田原新屋店", "col1": "神奈川県小田原市新屋４５−２", "col2": null, "col3": "小田原市", "LocName": "神奈川県/小田原市/新屋/４５番地", "fX": 139.1394, "fY": 35.2946, "iConf": 5, "iLvl": 7, "field_10": null, "field_11": null, "field_12": null }, "geometry": { "type": "Point", "coordinates": [ 139.1394, 35.2946 ] } },
{ "type": "Feature", "properties": { "col0": "ファミリーマート小田原駅東口店", "col1": "神奈川県小田原市栄町１丁目２−１", "col2": null, "col3": "小田原市", "LocName": "神奈川県/小田原市/栄町/一丁目/２番", "fX": 139.15674, "fY": 35.25516, "iConf": 5, "iLvl": 7, "field_10": null, "field_11": null, "field_12": null }, "geometry": { "type": "Point", "coordinates": [ 139.15674, 35.25516 ] } },
{ "type": "Feature", "properties": { "col0": "ファミリーマート小田原荻窪店", "col1": "神奈川県小田原市荻窪４７３", "col2": null, "col3": "小田原市", "LocName": "神奈川県/小田原市/荻窪/４７３番地", "fX": 139.14928, "fY": 35.26276, "iConf": 5, "iLvl": 7, "field_10": null, "field_11": null, "field_12": null }, "geometry": { "type": "Point", "coordinates": [ 139.14928, 35.26276 ] } },
{ "type": "Feature", "properties": { "col0": "ファミリーマート中井ＰＡ上り店", "col1": "神奈川県足柄上郡中井町松本９２６−２中井パーキングエリア", "col2": null, "col3": "足柄上郡中井町", "LocName": "神奈川県/足柄上郡/中井町/松本/９２６番地", "fX": 139.19933, "fY": 35.34297, "iConf": 5, "iLvl": 7, "field_10": null, "field_11": null, "field_12": null }, "geometry": { "type": "Point", "coordinates": [ 139.19933, 35.34297 ] } },
{ "type": "Feature", "properties": { "col0": "ファミリーマート大井町上大井店", "col1": "神奈川県足柄上郡大井町上大井６６−１", "col2": null, "col3": "足柄上郡大井町", "LocName": "神奈川県/足柄上郡/大井町/上大井/６６番地", "fX": 139.15829, "fY": 35.32323, "iConf": 5, "iLvl": 7, "field_10": null, "field_11": null, "field_12": null }, "geometry": { "type": "Point", "coordinates": [ 139.15829, 35.32323 ] } },
{ "type": "Feature", "properties": { "col0": "ファミリーマート山北町店", "col1": "神奈川県足柄上郡山北町山北７４１番地１", "col2": null, "col3": "足柄上郡山北町", "LocName": "神奈川県/足柄上郡/山北町/山北", "fX": 139.08105, "fY": 35.36124, "iConf": 5, "iLvl": 5, "field_10": null, "field_11": null, "field_12": null }, "geometry": { "type": "Point", "coordinates": [ 139.08105, 35.36124 ] } },
{ "type": "Feature", "properties": { "col0": "ファミリーマート開成延沢店", "col1": "神奈川県足柄上郡開成町延沢６１５−１", "col2": null, "col3": "足柄上郡開成町", "LocName": "神奈川県/足柄上郡/開成町/延沢/６１５番地", "fX": 139.1212, "fY": 35.3345, "iConf": 5, "iLvl": 7, "field_10": null, "field_11": null, "field_12": null }, "geometry": { "type": "Point", "coordinates": [ 139.1212, 35.3345 ] } },
{ "type": "Feature", "properties": { "col0": "ファミリーマート善行駅東口店", "col1": "神奈川県藤沢市善行７−４−１", "col2": null, "col3": "藤沢市", "LocName": "神奈川県/藤沢市/善行/七丁目/４番", "fX": 139.47415, "fY": 35.36325, "iConf": 5, "iLvl": 7, "field_10": null, "field_11": null, "field_12": null }, "geometry": { "type": "Point", "coordinates": [ 139.47415, 35.36325 ] } },
{ "type": "Feature", "properties": { "col0": "ファミリーマート藤沢舟地蔵店", "col1": "神奈川県藤沢市大庭５１３８−３", "col2": null, "col3": "藤沢市", "LocName": "神奈川県/藤沢市/大庭/５１３８番地", "fX": 139.45085, "fY": 35.35836, "iConf": 5, "iLvl": 7, "field_10": null, "field_11": null, "field_12": null }, "geometry": { "type": "Point", "coordinates": [ 139.45085, 35.35836 ] } },
{ "type": "Feature", "properties": { "col0": "ファミリーマート藤沢大庭店", "col1": "神奈川県藤沢市大庭５４２５−１５", "col2": null, "col3": "藤沢市", "LocName": "神奈川県/藤沢市/大庭/５４２５番地", "fX": 139.4536, "fY": 35.36426, "iConf": 5, "iLvl": 7, "field_10": null, "field_11": null, "field_12": null }, "geometry": { "type": "Point", "coordinates": [ 139.4536, 35.36426 ] } },
{ "type": "Feature", "properties": { "col0": "ファミリーマート藤沢柄沢店", "col1": "神奈川県藤沢市柄沢二丁目７番地２７", "col2": null, "col3": "藤沢市", "LocName": "神奈川県/藤沢市/柄沢/二丁目/７番地", "fX": 139.50111, "fY": 35.35349, "iConf": 5, "iLvl": 7, "field_10": null, "field_11": null, "field_12": null }, "geometry": { "type": "Point", "coordinates": [ 139.50111, 35.35349 ] } },
{ "type": "Feature", "properties": { "col0": "ファミリーマートサンズ湘南台一丁目店", "col1": "神奈川県藤沢市湘南台１−１２−１", "col2": null, "col3": "藤沢市", "LocName": "神奈川県/藤沢市/湘南台/一丁目/１２番", "fX": 139.4678, "fY": 35.39612, "iConf": 5, "iLvl": 7, "field_10": null, "field_11": null, "field_12": null }, "geometry": { "type": "Point", "coordinates": [ 139.4678, 35.39612 ] } },
{ "type": "Feature", "properties": { "col0": "ファミリーマート藤沢石川店", "col1": "神奈川県藤沢市石川６３６−９他６筆", "col2": null, "col3": "藤沢市", "LocName": "神奈川県/藤沢市/石川/６３６番地", "fX": 139.4519, "fY": 35.3708, "iConf": 5, "iLvl": 7, "field_10": null, "field_11": null, "field_12": null }, "geometry": { "type": "Point", "coordinates": [ 139.4519, 35.3708 ] } },
{ "type": "Feature", "properties": { "col0": "ファミリーマート藤沢羽鳥店", "col1": "神奈川県藤沢市羽鳥１‐３‐５０", "col2": null, "col3": "藤沢市", "LocName": "神奈川県/藤沢市/羽鳥/一丁目/３番", "fX": 139.44948, "fY": 35.34277, "iConf": 5, "iLvl": 7, "field_10": null, "field_11": null, "field_12": null }, "geometry": { "type": "Point", "coordinates": [ 139.44948, 35.34277 ] } },
{ "type": "Feature", "properties": { "col0": "ファミリーマート藤沢藤が岡店", "col1": "神奈川県藤沢市藤が岡１−１１−４", "col2": null, "col3": "藤沢市", "LocName": "神奈川県/藤沢市/藤が岡/一丁目/１１番", "fX": 139.4921, "fY": 35.34479, "iConf": 5, "iLvl": 7, "field_10": null, "field_11": null, "field_12": null }, "geometry": { "type": "Point", "coordinates": [ 139.4921, 35.34479 ] } },
{ "type": "Feature", "properties": { "col0": "ファミリーマート藤沢駅北口店", "col1": "神奈川県藤沢市藤沢４８４−１安田生命藤沢ビル", "col2": null, "col3": "藤沢市", "LocName": "神奈川県/藤沢市/藤沢/４８４番地", "fX": 139.48528, "fY": 35.33979, "iConf": 5, "iLvl": 7, "field_10": null, "field_11": null, "field_12": null }, "geometry": { "type": "Point", "coordinates": [ 139.48528, 35.33979 ] } },
{ "type": "Feature", "properties": { "col0": "ファミリーマート上溝七曲り店", "col1": "神奈川県相模原市中央区上溝１２４９−６", "col2": null, "col3": "相模原市", "LocName": "神奈川県/相模原市/中央区/上溝/１２４９番地", "fX": 139.37073, "fY": 35.54641, "iConf": 5, "iLvl": 7, "field_10": null, "field_11": null, "field_12": null }, "geometry": { "type": "Point", "coordinates": [ 139.37073, 35.54641 ] } },
{ "type": "Feature", "properties": { "col0": "ファミリーマート相模原中央五丁目店", "col1": "神奈川県相模原市中央区中央５−８−３", "col2": null, "col3": "相模原市", "LocName": "神奈川県/相模原市/中央区/中央/五丁目/８番", "fX": 139.36705, "fY": 35.57095, "iConf": 5, "iLvl": 7, "field_10": null, "field_11": null, "field_12": null }, "geometry": { "type": "Point", "coordinates": [ 139.36705, 35.57095 ] } },
{ "type": "Feature", "properties": { "col0": "ファミリーマート相模原淵野辺三丁目店", "col1": "神奈川県相模原市中央区淵野辺３丁目１０−１８", "col2": null, "col3": "相模原市", "LocName": "神奈川県/相模原市/中央区/淵野辺/三丁目/１０番", "fX": 139.39342, "fY": 35.57177, "iConf": 5, "iLvl": 7, "field_10": null, "field_11": null, "field_12": null }, "geometry": { "type": "Point", "coordinates": [ 139.39342, 35.57177 ] } },
{ "type": "Feature", "properties": { "col0": "ファミリーマート淵野辺駅南口店", "col1": "神奈川県相模原市中央区淵野辺４丁目１６番３０号", "col2": null, "col3": "相模原市", "LocName": "神奈川県/相模原市/中央区/淵野辺/四丁目/１６番", "fX": 139.39606, "fY": 35.56808, "iConf": 5, "iLvl": 7, "field_10": null, "field_11": null, "field_12": null }, "geometry": { "type": "Point", "coordinates": [ 139.39606, 35.56808 ] } },
{ "type": "Feature", "properties": { "col0": "ファミリーマート清新六丁目店", "col1": "神奈川県相模原市中央区清新６−１８−１５", "col2": null, "col3": "相模原市", "LocName": "神奈川県/相模原市/中央区/清新/六丁目/１８番", "fX": 139.35504, "fY": 35.57685, "iConf": 5, "iLvl": 7, "field_10": null, "field_11": null, "field_12": null }, "geometry": { "type": "Point", "coordinates": [ 139.35504, 35.57685 ] } },
{ "type": "Feature", "properties": { "col0": "ファミリーマート田名四ツ谷店", "col1": "神奈川県相模原市中央区田名４５５９番１", "col2": null, "col3": "相模原市", "LocName": "神奈川県/相模原市/中央区/田名/４５５９番地", "fX": 139.33838, "fY": 35.55646, "iConf": 5, "iLvl": 7, "field_10": null, "field_11": null, "field_12": null }, "geometry": { "type": "Point", "coordinates": [ 139.33838, 35.55646 ] } },
{ "type": "Feature", "properties": { "col0": "ファミリーマート北里大学病院店", "col1": "神奈川県相模原市南区北里１−１５−１", "col2": null, "col3": "相模原市", "LocName": "神奈川県/相模原市/南区/北里/一丁目/１５番", "fX": 139.39384, "fY": 35.53851, "iConf": 5, "iLvl": 7, "field_10": null, "field_11": null, "field_12": null }, "geometry": { "type": "Point", "coordinates": [ 139.39384, 35.53851 ] } },
{ "type": "Feature", "properties": { "col0": "ファミリーマートサンズ相模台五丁目店", "col1": "神奈川県相模原市南区相模台５−１１−７", "col2": null, "col3": "相模原市", "LocName": "神奈川県/相模原市/南区/相模台/五丁目/１１番", "fX": 139.41051, "fY": 35.51652, "iConf": 5, "iLvl": 7, "field_10": null, "field_11": null, "field_12": null }, "geometry": { "type": "Point", "coordinates": [ 139.41051, 35.51652 ] } },
{ "type": "Feature", "properties": { "col0": "ファミリーマート相模大野南口店", "col1": "神奈川県相模原市南区相模大野八丁目２番６号", "col2": null, "col3": "相模原市", "LocName": "神奈川県/相模原市/南区/相模大野/八丁目/２番", "fX": 139.43776, "fY": 35.5309, "iConf": 5, "iLvl": 7, "field_10": null, "field_11": null, "field_12": null }, "geometry": { "type": "Point", "coordinates": [ 139.43776, 35.5309 ] } },
{ "type": "Feature", "properties": { "col0": "ファミリーマートよろづや相模大野北口店", "col1": "神奈川県相模原市南区相模大野３−９−１", "col2": null, "col3": "相模原市", "LocName": "神奈川県/相模原市/南区/相模大野/三丁目/９番", "fX": 139.43733, "fY": 35.53253, "iConf": 5, "iLvl": 7, "field_10": null, "field_11": null, "field_12": null }, "geometry": { "type": "Point", "coordinates": [ 139.43733, 35.53253 ] } },
{ "type": "Feature", "properties": { "col0": "ファミリーマート相模大野銀座通り店", "col1": "神奈川県相模原市南区相模大野６丁目１９−１７", "col2": null, "col3": "相模原市", "LocName": "神奈川県/相模原市/南区/相模大野/六丁目/１９番", "fX": 139.43433, "fY": 35.52967, "iConf": 5, "iLvl": 7, "field_10": null, "field_11": null, "field_12": null }, "geometry": { "type": "Point", "coordinates": [ 139.43433, 35.52967 ] } },
{ "type": "Feature", "properties": { "col0": "ファミリーマート相武台三丁目店", "col1": "神奈川県相模原市南区相武台３丁目２１−３９", "col2": null, "col3": "相模原市", "LocName": "神奈川県/相模原市/南区/相武台/三丁目/２１番", "fX": 139.40701, "fY": 35.50504, "iConf": 5, "iLvl": 7, "field_10": null, "field_11": null, "field_12": null }, "geometry": { "type": "Point", "coordinates": [ 139.40701, 35.50504 ] } },
{ "type": "Feature", "properties": { "col0": "ファミリーマート相模原鵜野森店", "col1": "神奈川県相模原市南区鵜野森３丁目７−１３", "col2": null, "col3": "相模原市", "LocName": "神奈川県/相模原市/南区/鵜野森/三丁目/７番", "fX": 139.43364, "fY": 35.53938, "iConf": 5, "iLvl": 7, "field_10": null, "field_11": null, "field_12": null }, "geometry": { "type": "Point", "coordinates": [ 139.43364, 35.53938 ] } },
{ "type": "Feature", "properties": { "col0": "ファミリーマート八洋相模原麻溝台四丁目店", "col1": "神奈川県相模原市南区麻溝台四丁目７−３８", "col2": null, "col3": "相模原市", "LocName": "神奈川県/相模原市/南区/麻溝台/四丁目/７番", "fX": 139.40608, "fY": 35.53271, "iConf": 5, "iLvl": 7, "field_10": null, "field_11": null, "field_12": null }, "geometry": { "type": "Point", "coordinates": [ 139.40608, 35.53271 ] } },
{ "type": "Feature", "properties": { "col0": "ファミリーマート津久井三ヶ木店", "col1": "神奈川県相模原市緑区三ヶ木１５９３番地１", "col2": null, "col3": "相模原市", "LocName": "神奈川県/相模原市/緑区/三ケ木/１５９３番地", "fX": 139.22807, "fY": 35.59074, "iConf": 5, "iLvl": 7, "field_10": null, "field_11": null, "field_12": null }, "geometry": { "type": "Point", "coordinates": [ 139.22807, 35.59074 ] } },
{ "type": "Feature", "properties": { "col0": "ファミリーマート相模原下九沢店", "col1": "神奈川県相模原市緑区下九沢２９１７番１", "col2": null, "col3": "相模原市", "LocName": "神奈川県/相模原市/緑区/下九沢/２９１７番地", "fX": 139.31895, "fY": 35.58637, "iConf": 5, "iLvl": 7, "field_10": null, "field_11": null, "field_12": null }, "geometry": { "type": "Point", "coordinates": [ 139.31895, 35.58637 ] } },
{ "type": "Feature", "properties": { "col0": "ファミリーマート作の口小学校前店", "col1": "神奈川県相模原市緑区下九沢４６８番１", "col2": null, "col3": "相模原市", "LocName": "神奈川県/相模原市/緑区/下九沢/４６８番地", "fX": 139.35077, "fY": 35.57039, "iConf": 5, "iLvl": 7, "field_10": null, "field_11": null, "field_12": null }, "geometry": { "type": "Point", "coordinates": [ 139.35077, 35.57039 ] } },
{ "type": "Feature", "properties": { "col0": "ファミリーマート相模原原宿五丁目店", "col1": "神奈川県相模原市緑区原宿５丁目１番５号", "col2": null, "col3": "相模原市", "LocName": "神奈川県/相模原市/緑区/原宿/五丁目/１番", "fX": 139.30815, "fY": 35.59624, "iConf": 5, "iLvl": 7, "field_10": null, "field_11": null, "field_12": null }, "geometry": { "type": "Point", "coordinates": [ 139.30815, 35.59624 ] } },
{ "type": "Feature", "properties": { "col0": "ファミリーマート津久井太井店", "col1": "神奈川県相模原市緑区太井２３０番１", "col2": null, "col3": "相模原市", "LocName": "神奈川県/相模原市/緑区/太井/２３０番地", "fX": 139.26738, "fY": 35.58439, "iConf": 5, "iLvl": 7, "field_10": null, "field_11": null, "field_12": null }, "geometry": { "type": "Point", "coordinates": [ 139.26738, 35.58439 ] } },
{ "type": "Feature", "properties": { "col0": "ファミリーマート相模原西橋本店", "col1": "神奈川県相模原市緑区西橋本一丁目１番３号", "col2": null, "col3": "相模原市", "LocName": "神奈川県/相模原市/緑区/西橋本/一丁目/１番", "fX": 139.34096, "fY": 35.59131, "iConf": 5, "iLvl": 7, "field_10": null, "field_11": null, "field_12": null }, "geometry": { "type": "Point", "coordinates": [ 139.34096, 35.59131 ] } },
{ "type": "Feature", "properties": { "col0": "ファミリーマート秦野ひらさわ店", "col1": "神奈川県秦野市平沢２９４番地の２", "col2": null, "col3": "秦野市", "LocName": "神奈川県/秦野市/平沢/２９４番地", "fX": 139.19644, "fY": 35.37607, "iConf": 5, "iLvl": 7, "field_10": null, "field_11": null, "field_12": null }, "geometry": { "type": "Point", "coordinates": [ 139.19644, 35.37607 ] } },
{ "type": "Feature", "properties": { "col0": "ファミリーマート渋沢南店", "col1": "神奈川県秦野市曲松１−４−１３", "col2": null, "col3": "秦野市", "LocName": "神奈川県/秦野市/曲松/一丁目/４番", "fX": 139.18295, "fY": 35.37373, "iConf": 5, "iLvl": 7, "field_10": null, "field_11": null, "field_12": null }, "geometry": { "type": "Point", "coordinates": [ 139.18295, 35.37373 ] } },
{ "type": "Feature", "properties": { "col0": "ファミリーマート秦野運動公園東店", "col1": "神奈川県秦野市曽屋６８７番３５", "col2": null, "col3": "秦野市", "LocName": "神奈川県/秦野市/曽屋/６８７番地", "fX": 139.20332, "fY": 35.38199, "iConf": 5, "iLvl": 7, "field_10": null, "field_11": null, "field_12": null }, "geometry": { "type": "Point", "coordinates": [ 139.20332, 35.38199 ] } },
{ "type": "Feature", "properties": { "col0": "ファミリーマート秦野本町店", "col1": "神奈川県秦野市本町２丁目１−１", "col2": null, "col3": "秦野市", "LocName": "神奈川県/秦野市/本町/二丁目/１番", "fX": 139.22827, "fY": 35.3707, "iConf": 5, "iLvl": 7, "field_10": null, "field_11": null, "field_12": null }, "geometry": { "type": "Point", "coordinates": [ 139.22827, 35.3707 ] } },
{ "type": "Feature", "properties": { "col0": "ファミリーマートサンズ上依知南店", "col1": "神奈川県厚木市上依知１２９６−１", "col2": null, "col3": "厚木市", "LocName": "神奈川県/厚木市/上依知/１２９６番地", "fX": 139.35794, "fY": 35.50754, "iConf": 5, "iLvl": 7, "field_10": null, "field_11": null, "field_12": null }, "geometry": { "type": "Point", "coordinates": [ 139.35794, 35.50754 ] } },
{ "type": "Feature", "properties": { "col0": "ファミリーマート厚木及川店", "col1": "神奈川県厚木市及川二丁目２３番１８", "col2": null, "col3": "厚木市", "LocName": "神奈川県/厚木市/及川/二丁目/２３番", "fX": 139.34703, "fY": 35.46891, "iConf": 5, "iLvl": 7, "field_10": null, "field_11": null, "field_12": null }, "geometry": { "type": "Point", "coordinates": [ 139.34703, 35.46891 ] } },
{ "type": "Feature", "properties": { "col0": "ファミリーマート厚木妻田北店", "col1": "神奈川県厚木市妻田北３丁目９番２４号", "col2": null, "col3": "厚木市", "LocName": "神奈川県/厚木市/妻田北/三丁目/９番", "fX": 139.35693, "fY": 35.46573, "iConf": 5, "iLvl": 7, "field_10": null, "field_11": null, "field_12": null }, "geometry": { "type": "Point", "coordinates": [ 139.35693, 35.46573 ] } },
{ "type": "Feature", "properties": { "col0": "ファミリーマート本厚木駅南口店", "col1": "神奈川県厚木市泉町３−１４東友ビル", "col2": null, "col3": "厚木市", "LocName": "神奈川県/厚木市/泉町/３番", "fX": 139.36539, "fY": 35.43929, "iConf": 5, "iLvl": 7, "field_10": null, "field_11": null, "field_12": null }, "geometry": { "type": "Point", "coordinates": [ 139.36539, 35.43929 ] } },
{ "type": "Feature", "properties": { "col0": "ファミリーマートサンズ中央林間四丁目店", "col1": "神奈川県大和市中央林間４丁目２９−２０", "col2": null, "col3": "大和市", "LocName": "神奈川県/大和市/中央林間/四丁目/２９番", "fX": 139.44847, "fY": 35.50678, "iConf": 5, "iLvl": 7, "field_10": null, "field_11": null, "field_12": null }, "geometry": { "type": "Point", "coordinates": [ 139.44847, 35.50678 ] } },
{ "type": "Feature", "properties": { "col0": "ファミリーマート大和代官二丁目店", "col1": "神奈川県大和市代官２−１７−４", "col2": null, "col3": "大和市", "LocName": "神奈川県/大和市/代官/二丁目/１７番", "fX": 139.45827, "fY": 35.43954, "iConf": 5, "iLvl": 7, "field_10": null, "field_11": null, "field_12": null }, "geometry": { "type": "Point", "coordinates": [ 139.45827, 35.43954 ] } },
{ "type": "Feature", "properties": { "col0": "ファミリーマート南林間駅前店", "col1": "神奈川県大和市南林間１丁目７−１４", "col2": null, "col3": "大和市", "LocName": "神奈川県/大和市/南林間/一丁目/７番", "fX": 139.44749, "fY": 35.49482, "iConf": 5, "iLvl": 7, "field_10": null, "field_11": null, "field_12": null }, "geometry": { "type": "Point", "coordinates": [ 139.44749, 35.49482 ] } },
{ "type": "Feature", "properties": { "col0": "ファミリーマート大船一丁目店", "col1": "神奈川県鎌倉市大船１丁目２５番５号", "col2": null, "col3": "鎌倉市", "LocName": "神奈川県/鎌倉市/大船/一丁目/２５番", "fX": 139.53342, "fY": 35.35371, "iConf": 5, "iLvl": 7, "field_10": null, "field_11": null, "field_12": null }, "geometry": { "type": "Point", "coordinates": [ 139.53342, 35.35371 ] } },
{ "type": "Feature", "properties": { "col0": "ファミリーマート鎌倉二の鳥居店", "col1": "神奈川県鎌倉市小町２−１５−１", "col2": null, "col3": "鎌倉市", "LocName": "神奈川県/鎌倉市/小町/二丁目/１５番", "fX": 139.5531, "fY": 35.31992, "iConf": 5, "iLvl": 7, "field_10": null, "field_11": null, "field_12": null }, "geometry": { "type": "Point", "coordinates": [ 139.5531, 35.31992 ] } },
{ "type": "Feature", "properties": { "col0": "ファミリーマート鎌倉長谷店", "col1": "神奈川県鎌倉市長谷１−８−５", "col2": null, "col3": "鎌倉市", "LocName": "神奈川県/鎌倉市/長谷/一丁目/８番", "fX": 139.53918, "fY": 35.31361, "iConf": 5, "iLvl": 7, "field_10": null, "field_11": null, "field_12": null }, "geometry": { "type": "Point", "coordinates": [ 139.53918, 35.31361 ] } },
{ "type": "Feature", "properties": { "col0": "ファミリーマート座間郵便局前店", "col1": "神奈川県座間市相模が丘一丁目９−２２", "col2": null, "col3": "座間市", "LocName": "神奈川県/座間市/相模が丘/一丁目/９番", "fX": 139.41579, "fY": 35.50977, "iConf": 5, "iLvl": 7, "field_10": null, "field_11": null, "field_12": null }, "geometry": { "type": "Point", "coordinates": [ 139.41579, 35.50977 ] } },
{ "type": "Feature", "properties": { "col0": "ファミリーマート座間相模が丘五丁目店", "col1": "神奈川県座間市相模が丘５丁目２９−５１", "col2": null, "col3": "座間市", "LocName": "神奈川県/座間市/相模が丘/五丁目/２９番", "fX": 139.42409, "fY": 35.51003, "iConf": 5, "iLvl": 7, "field_10": null, "field_11": null, "field_12": null }, "geometry": { "type": "Point", "coordinates": [ 139.42409, 35.51003 ] } },
{ "type": "Feature", "properties": { "col0": "ファミリーマート箱根仙石湿原店", "col1": "神奈川県足柄下郡箱根町仙石原８１７−４４６", "col2": null, "col3": "足柄下郡箱根町", "LocName": "神奈川県/足柄下郡/箱根町/仙石原/８１７番地", "fX": 138.99937, "fY": 35.26557, "iConf": 5, "iLvl": 7, "field_10": null, "field_11": null, "field_12": null }, "geometry": { "type": "Point", "coordinates": [ 138.99937, 35.26557 ] } },
{ "type": "Feature", "properties": { "col0": "ファミリーマート箱根湯本店", "col1": "神奈川県足柄下郡箱根町湯本３８６−３３", "col2": null, "col3": "足柄下郡箱根町", "LocName": "神奈川県/足柄下郡/箱根町/湯本/３８６番地", "fX": 139.1055, "fY": 35.22936, "iConf": 5, "iLvl": 7, "field_10": null, "field_11": null, "field_12": null }, "geometry": { "type": "Point", "coordinates": [ 139.1055, 35.22936 ] } },
{ "type": "Feature", "properties": { "col0": "ファミリーマート茅ヶ崎中島北店", "col1": "神奈川県茅ヶ崎市中島２５４番地３", "col2": null, "col3": "茅ヶ崎市", "LocName": "神奈川県/茅ヶ崎市/中島/２５４番地", "fX": 139.37585, "fY": 35.33177, "iConf": 5, "iLvl": 7, "field_10": null, "field_11": null, "field_12": null }, "geometry": { "type": "Point", "coordinates": [ 139.37585, 35.33177 ] } },
{ "type": "Feature", "properties": { "col0": "ファミリーマート茅ヶ崎堤坂下店", "col1": "神奈川県茅ヶ崎市堤２３０９−１他（地番）", "col2": null, "col3": "茅ヶ崎市", "LocName": "神奈川県/茅ヶ崎市/堤/２３０９番地", "fX": 139.42111, "fY": 35.36428, "iConf": 5, "iLvl": 7, "field_10": null, "field_11": null, "field_12": null }, "geometry": { "type": "Point", "coordinates": [ 139.42111, 35.36428 ] } },
{ "type": "Feature", "properties": { "col0": "ファミリーマート辻堂駅西口店", "col1": "神奈川県茅ヶ崎市赤松町１３番１号", "col2": null, "col3": "茅ヶ崎市", "LocName": "神奈川県/茅ヶ崎市/赤松町/１３番", "fX": 139.44191, "fY": 35.33876, "iConf": 5, "iLvl": 7, "field_10": null, "field_11": null, "field_12": null }, "geometry": { "type": "Point", "coordinates": [ 139.44191, 35.33876 ] } },
{ "type": "Feature", "properties": { "col0": "ファミリーマート茅ヶ崎赤羽根店", "col1": "神奈川県茅ヶ崎市赤羽根２２５２−１", "col2": null, "col3": "茅ヶ崎市", "LocName": "神奈川県/茅ヶ崎市/赤羽根/２２５２番地", "fX": 139.43434, "fY": 35.34644, "iConf": 5, "iLvl": 7, "field_10": null, "field_11": null, "field_12": null }, "geometry": { "type": "Point", "coordinates": [ 139.43434, 35.34644 ] } },
{ "type": "Feature", "properties": { "col0": "ファミリーマート逗子・葉山駅前店", "col1": "神奈川県逗子市逗子５−１−２３", "col2": null, "col3": "逗子市", "LocName": "神奈川県/逗子市/逗子/五丁目/１番", "fX": 139.58061, "fY": 35.29638, "iConf": 5, "iLvl": 7, "field_10": null, "field_11": null, "field_12": null }, "geometry": { "type": "Point", "coordinates": [ 139.58061, 35.29638 ] } },
{ "type": "Feature", "properties": { "col0": "ファミリーマート平塚紅谷町店", "col1": "神奈川県平塚市紅谷町２−１４", "col2": null, "col3": "平塚市", "LocName": "神奈川県/平塚市/紅谷町/２番", "fX": 139.34999, "fY": 35.32945, "iConf": 5, "iLvl": 7, "field_10": null, "field_11": null, "field_12": null }, "geometry": { "type": "Point", "coordinates": [ 139.34999, 35.32945 ] } },
{ "type": "Feature", "properties": { "col0": "ファミリーマート平塚駅北口店", "col1": "神奈川県平塚市紅谷町４−３", "col2": null, "col3": "平塚市", "LocName": "神奈川県/平塚市/紅谷町/４番", "fX": 139.34911, "fY": 35.32912, "iConf": 5, "iLvl": 7, "field_10": null, "field_11": null, "field_12": null }, "geometry": { "type": "Point", "coordinates": [ 139.34911, 35.32912 ] } },
{ "type": "Feature", "properties": { "col0": "ファミリーマート綾瀬大上一丁目店", "col1": "神奈川県綾瀬市大上一丁目２番８号", "col2": null, "col3": "綾瀬市", "LocName": "神奈川県/綾瀬市/大上/一丁目/２番", "fX": 139.42982, "fY": 35.45147, "iConf": 5, "iLvl": 7, "field_10": null, "field_11": null, "field_12": null }, "geometry": { "type": "Point", "coordinates": [ 139.42982, 35.45147 ] } },
{ "type": "Feature", "properties": { "col0": "ファミリーマート愛甲石田駅前店", "col1": "神奈川県伊勢原市石田６０２番地１安田屋ビル１Ｆ", "col2": null, "col3": "伊勢原市", "LocName": "神奈川県/伊勢原市/石田/６０２番地", "fX": 139.34344, "fY": 35.41675, "iConf": 5, "iLvl": 7, "field_10": null, "field_11": null, "field_12": null }, "geometry": { "type": "Point", "coordinates": [ 139.34344, 35.41675 ] } },
{ "type": "Feature", "properties": { "col0": "ファミリーマート南足柄和田河原南店", "col1": "神奈川県南足柄市和田河原１３１７番１", "col2": null, "col3": "南足柄市", "LocName": "神奈川県/南足柄市/和田河原/１３１７番地", "fX": 139.12468, "fY": 35.31475, "iConf": 5, "iLvl": 7, "field_10": null, "field_11": null, "field_12": null }, "geometry": { "type": "Point", "coordinates": [ 139.12468, 35.31475 ] } },
{ "type": "Feature", "properties": { "col0": "ファミリーマート寒川一之宮店", "col1": "神奈川県高座郡寒川町一之宮一丁目１０−４１", "col2": null, "col3": "高座郡寒川町", "LocName": "神奈川県/高座郡/寒川町/一之宮/一丁目/１０番", "fX": 139.38652, "fY": 35.36661, "iConf": 5, "iLvl": 7, "field_10": null, "field_11": null, "field_12": null }, "geometry": { "type": "Point", "coordinates": [ 139.38652, 35.36661 ] } },
{ "type": "Feature", "properties": { "col0": "ファミリーマート海老名中央三丁目店", "col1": "神奈川県海老名市中央３−３−３３", "col2": null, "col3": "海老名市", "LocName": "神奈川県/海老名市/中央/三丁目/３番", "fX": 139.38934, "fY": 35.45006, "iConf": 5, "iLvl": 7, "field_10": null, "field_11": null, "field_12": null }, "geometry": { "type": "Point", "coordinates": [ 139.38934, 35.45006 ] } },
{ "type": "Feature", "properties": { "col0": "ファミリーマートさがみ野店", "col1": "神奈川県海老名市東柏ケ谷３丁目１３番６号", "col2": null, "col3": "海老名市", "LocName": "神奈川県/海老名市/東柏ケ谷/三丁目/１３番", "fX": 139.42836, "fY": 35.47252, "iConf": 5, "iLvl": 7, "field_10": null, "field_11": null, "field_12": null }, "geometry": { "type": "Point", "coordinates": [ 139.42836, 35.47252 ] } },
{ "type": "Feature", "properties": { "col0": "ファミリーマートフレストつくばみらい陽光台店", "col1": "茨城県つくばみらい市小張４０８９番地４３（陽光台２丁目２０７街区１画地）", "col2": null, "col3": "つくばみらい市", "LocName": "茨城県/つくばみらい市/小張", "fX": 140.04579, "fY": 35.9882, "iConf": 5, "iLvl": 5, "field_10": null, "field_11": null, "field_12": null }, "geometry": { "type": "Point", "coordinates": [ 140.04579, 35.9882 ] } },
{ "type": "Feature", "properties": { "col0": "ファミリーマートひたち野うしく東店", "col1": "茨城県牛久市ひたち野東３４１−１", "col2": null, "col3": "牛久市", "LocName": "茨城県/牛久市/ひたち野東", "fX": 140.16136, "fY": 36.00998, "iConf": 5, "iLvl": 5, "field_10": null, "field_11": null, "field_12": null }, "geometry": { "type": "Point", "coordinates": [ 140.16136, 36.00998 ] } },
{ "type": "Feature", "properties": { "col0": "ファミリーマート牛久中央二丁目店", "col1": "茨城県牛久市中央２−１６−１２", "col2": null, "col3": "牛久市", "LocName": "茨城県/牛久市/中央/二丁目/１６番", "fX": 140.14616, "fY": 35.98296, "iConf": 5, "iLvl": 7, "field_10": null, "field_11": null, "field_12": null }, "geometry": { "type": "Point", "coordinates": [ 140.14616, 35.98296 ] } },
{ "type": "Feature", "properties": { "col0": "ファミリーマート佐貫駅前店", "col1": "茨城県龍ケ崎市佐貫町６４５−１関東鉄道佐貫ビル２", "col2": null, "col3": "龍ケ崎市", "LocName": "茨城県/龍ケ崎市/佐貫町/６４５番地", "fX": 140.13805, "fY": 35.92896, "iConf": 5, "iLvl": 7, "field_10": null, "field_11": null, "field_12": null }, "geometry": { "type": "Point", "coordinates": [ 140.13805, 35.92896 ] } },
{ "type": "Feature", "properties": { "col0": "ファミリーマート龍ヶ崎北方店", "col1": "茨城県龍ケ崎市北方町２１０８他８筆", "col2": null, "col3": "龍ケ崎市", "LocName": "茨城県/龍ケ崎市/北方町/２１０８番地", "fX": 140.16008, "fY": 35.88251, "iConf": 5, "iLvl": 7, "field_10": null, "field_11": null, "field_12": null }, "geometry": { "type": "Point", "coordinates": [ 140.16008, 35.88251 ] } },
{ "type": "Feature", "properties": { "col0": "ファミリーマート坂東辺田店", "col1": "茨城県坂東市辺田１４０２−９０", "col2": null, "col3": "坂東市", "LocName": "茨城県/坂東市/辺田/１４０２番地", "fX": 139.89839, "fY": 36.04466, "iConf": 5, "iLvl": 7, "field_10": null, "field_11": null, "field_12": null }, "geometry": { "type": "Point", "coordinates": [ 139.89839, 36.04466 ] } },
{ "type": "Feature", "properties": { "col0": "ファミリーマート古河東本町店", "col1": "茨城県古河市古河５２０番１", "col2": null, "col3": "古河市", "LocName": "茨城県/古河市/古河/５２０番地", "fX": 139.71368, "fY": 36.19216, "iConf": 5, "iLvl": 7, "field_10": null, "field_11": null, "field_12": null }, "geometry": { "type": "Point", "coordinates": [ 139.71368, 36.19216 ] } },
{ "type": "Feature", "properties": { "col0": "ファミリーマート古河旭町店", "col1": "茨城県古河市旭町２丁目１番５５", "col2": null, "col3": "古河市", "LocName": "茨城県/古河市/旭町/二丁目/１番", "fX": 139.72505, "fY": 36.19419, "iConf": 5, "iLvl": 7, "field_10": null, "field_11": null, "field_12": null }, "geometry": { "type": "Point", "coordinates": [ 139.72505, 36.19419 ] } },
{ "type": "Feature", "properties": { "col0": "ファミリーマート古河横山町店", "col1": "茨城県古河市横山町三丁目５４４９番地３", "col2": null, "col3": "古河市", "LocName": "茨城県/古河市/横山町/三丁目", "fX": 139.7047, "fY": 36.20148, "iConf": 5, "iLvl": 6, "field_10": null, "field_11": null, "field_12": null }, "geometry": { "type": "Point", "coordinates": [ 139.7047, 36.20148 ] } },
{ "type": "Feature", "properties": { "col0": "ファミリーマートひたちなか北神敷台店", "col1": "茨城県ひたちなか市北神敷台１８−１５", "col2": null, "col3": "ひたちなか市", "LocName": "茨城県/ひたちなか市/北神敷台/１８番", "fX": 140.59328, "fY": 36.35505, "iConf": 5, "iLvl": 7, "field_10": null, "field_11": null, "field_12": null }, "geometry": { "type": "Point", "coordinates": [ 140.59328, 36.35505 ] } },
{ "type": "Feature", "properties": { "col0": "ファミリーマートひたちなか津田店", "col1": "茨城県ひたちなか市津田東３−１−１", "col2": null, "col3": "ひたちなか市", "LocName": "茨城県/ひたちなか市/津田東/三丁目/１番", "fX": 140.50471, "fY": 36.40981, "iConf": 5, "iLvl": 7, "field_10": null, "field_11": null, "field_12": null }, "geometry": { "type": "Point", "coordinates": [ 140.50471, 36.40981 ] } },
{ "type": "Feature", "properties": { "col0": "ファミリーマートひたちなか湊本町店", "col1": "茨城県ひたちなか市湊本町６番１７号", "col2": null, "col3": "ひたちなか市", "LocName": "茨城県/ひたちなか市/湊本町/６番", "fX": 140.59328, "fY": 36.34246, "iConf": 5, "iLvl": 7, "field_10": null, "field_11": null, "field_12": null }, "geometry": { "type": "Point", "coordinates": [ 140.59328, 36.34246 ] } },
{ "type": "Feature", "properties": { "col0": "ファミリーマートひたちなか西大島店", "col1": "茨城県ひたちなか市西大島三丁目１番７号", "col2": null, "col3": "ひたちなか市", "LocName": "茨城県/ひたちなか市/西大島/三丁目/１番", "fX": 140.52383, "fY": 36.40486, "iConf": 5, "iLvl": 7, "field_10": null, "field_11": null, "field_12": null }, "geometry": { "type": "Point", "coordinates": [ 140.52383, 36.40486 ] } },
{ "type": "Feature", "properties": { "col0": "ファミリーマートつくばＱ'ｔ店", "col1": "茨城県つくば市吾妻１−６−１", "col2": null, "col3": "つくば市", "LocName": "茨城県/つくば市/吾妻/一丁目/６番", "fX": 140.11163, "fY": 36.08186, "iConf": 5, "iLvl": 7, "field_10": null, "field_11": null, "field_12": null }, "geometry": { "type": "Point", "coordinates": [ 140.11163, 36.08186 ] } },
{ "type": "Feature", "properties": { "col0": "ファミリーマートつくば面野井店", "col1": "茨城県つくば市大字面野井字丸山１６５−１", "col2": null, "col3": "つくば市", "LocName": "茨城県/つくば市/面野井", "fX": 140.06804, "fY": 36.07635, "iConf": 5, "iLvl": 5, "field_10": null, "field_11": null, "field_12": null }, "geometry": { "type": "Point", "coordinates": [ 140.06804, 36.07635 ] } },
{ "type": "Feature", "properties": { "col0": "ファミリーマートつくば研究学園四丁目店", "col1": "茨城県つくば市研究学園４−２−１５", "col2": null, "col3": "つくば市", "LocName": "茨城県/つくば市/研究学園/四丁目/２番地", "fX": 140.07866, "fY": 36.0853, "iConf": 5, "iLvl": 7, "field_10": null, "field_11": null, "field_12": null }, "geometry": { "type": "Point", "coordinates": [ 140.07866, 36.0853 ] } },
{ "type": "Feature", "properties": { "col0": "ファミリーマートつくば葛城店", "col1": "茨城県つくば市研究学園７−４３−８", "col2": null, "col3": "つくば市", "LocName": "茨城県/つくば市/研究学園/七丁目/４３番地", "fX": 140.09734, "fY": 36.08454, "iConf": 5, "iLvl": 7, "field_10": null, "field_11": null, "field_12": null }, "geometry": { "type": "Point", "coordinates": [ 140.09734, 36.08454 ] } },
{ "type": "Feature", "properties": { "col0": "ファミリーマートつくばみどりの店", "col1": "茨城県つくば市花島新田字北原１０−６（みどりの中央Ｂ２４ー１）", "col2": null, "col3": "つくば市", "LocName": "茨城県/つくば市/花島新田", "fX": 140.0508, "fY": 36.03135, "iConf": 5, "iLvl": 5, "field_10": null, "field_11": null, "field_12": null }, "geometry": { "type": "Point", "coordinates": [ 140.0508, 36.03135 ] } },
{ "type": "Feature", "properties": { "col0": "ファミリーマートつくば谷田部中央店", "col1": "茨城県つくば市谷田部２１４０番１", "col2": null, "col3": "つくば市", "LocName": "茨城県/つくば市/谷田部/２１４０番地", "fX": 140.06886, "fY": 36.03553, "iConf": 5, "iLvl": 7, "field_10": null, "field_11": null, "field_12": null }, "geometry": { "type": "Point", "coordinates": [ 140.06886, 36.03553 ] } },
{ "type": "Feature", "properties": { "col0": "ファミリーマート境山神店", "col1": "茨城県猿島郡境町８０８", "col2": null, "col3": "猿島郡境町", "LocName": "茨城県/猿島郡/境町/８０８番地", "fX": 139.79688, "fY": 36.10599, "iConf": 5, "iLvl": 7, "field_10": null, "field_11": null, "field_12": null }, "geometry": { "type": "Point", "coordinates": [ 139.79688, 36.10599 ] } },
{ "type": "Feature", "properties": { "col0": "ファミリーマート大洗港中央店", "col1": "茨城県東茨城郡大洗町磯浜町６８８１番５５０", "col2": null, "col3": "東茨城郡大洗町", "LocName": "茨城県/東茨城郡/大洗町/磯浜町/６８８１番地", "fX": 140.56891, "fY": 36.31172, "iConf": 5, "iLvl": 7, "field_10": null, "field_11": null, "field_12": null }, "geometry": { "type": "Point", "coordinates": [ 140.56891, 36.31172 ] } },
{ "type": "Feature", "properties": { "col0": "ファミリーマート茨城免許センター前店", "col1": "茨城県東茨城郡茨城町上石崎５９５０−４", "col2": null, "col3": "東茨城郡茨城町", "LocName": "茨城県/東茨城郡/茨城町/上石崎/５９５０番地", "fX": 140.46219, "fY": 36.31126, "iConf": 5, "iLvl": 7, "field_10": null, "field_11": null, "field_12": null }, "geometry": { "type": "Point", "coordinates": [ 140.46219, 36.31126 ] } },
{ "type": "Feature", "properties": { "col0": "ファミリーマート茨城大戸店", "col1": "茨城県東茨城郡茨城町大字大戸１８００−１", "col2": null, "col3": "東茨城郡茨城町", "LocName": "茨城県/東茨城郡/茨城町/大戸/１８００番地", "fX": 140.41789, "fY": 36.32042, "iConf": 5, "iLvl": 7, "field_10": null, "field_11": null, "field_12": null }, "geometry": { "type": "Point", "coordinates": [ 140.41789, 36.32042 ] } },
{ "type": "Feature", "properties": { "col0": "ファミリーマート水戸双葉台店", "col1": "茨城県水戸市双葉台４丁目５８６−２", "col2": null, "col3": "水戸市", "LocName": "茨城県/水戸市/双葉台/四丁目/５８６番地", "fX": 140.40468, "fY": 36.3911, "iConf": 5, "iLvl": 7, "field_10": null, "field_11": null, "field_12": null }, "geometry": { "type": "Point", "coordinates": [ 140.40468, 36.3911 ] } },
{ "type": "Feature", "properties": { "col0": "ファミリーマート水戸河和田店", "col1": "茨城県水戸市河和田２丁目１７７７−３", "col2": null, "col3": "水戸市", "LocName": "茨城県/水戸市/河和田/二丁目/１７７７番地", "fX": 140.40848, "fY": 36.37665, "iConf": 5, "iLvl": 7, "field_10": null, "field_11": null, "field_12": null }, "geometry": { "type": "Point", "coordinates": [ 140.40848, 36.37665 ] } },
{ "type": "Feature", "properties": { "col0": "ファミリーマート水戸笠原店", "col1": "茨城県水戸市笠原町４１４−１０", "col2": null, "col3": "水戸市", "LocName": "茨城県/水戸市/笠原町/４１４番地", "fX": 140.45212, "fY": 36.33723, "iConf": 5, "iLvl": 7, "field_10": null, "field_11": null, "field_12": null }, "geometry": { "type": "Point", "coordinates": [ 140.45212, 36.33723 ] } },
{ "type": "Feature", "properties": { "col0": "ファミリーマート水戸飯富町店", "col1": "茨城県水戸市飯富町５２１６番１他１筆", "col2": null, "col3": "水戸市", "LocName": "茨城県/水戸市/飯富町/５２１６番地", "fX": 140.42267, "fY": 36.41892, "iConf": 5, "iLvl": 7, "field_10": null, "field_11": null, "field_12": null }, "geometry": { "type": "Point", "coordinates": [ 140.42267, 36.41892 ] } },
{ "type": "Feature", "properties": { "col0": "ファミリーマート取手東四丁目店", "col1": "茨城県取手市東四丁目１−３０", "col2": null, "col3": "取手市", "LocName": "茨城県/取手市/東/四丁目/１番", "fX": 140.07042, "fY": 35.88849, "iConf": 5, "iLvl": 7, "field_10": null, "field_11": null, "field_12": null }, "geometry": { "type": "Point", "coordinates": [ 140.07042, 35.88849 ] } },
{ "type": "Feature", "properties": { "col0": "ファミリーマート取手藤代南三丁目店", "col1": "茨城県取手市藤代南３丁目１０−１", "col2": null, "col3": "取手市", "LocName": "茨城県/取手市/藤代南/三丁目/１０番", "fX": 140.12199, "fY": 35.91298, "iConf": 5, "iLvl": 7, "field_10": null, "field_11": null, "field_12": null }, "geometry": { "type": "Point", "coordinates": [ 140.12199, 35.91298 ] } },
{ "type": "Feature", "properties": { "col0": "ファミリーマート日立金畑店", "col1": "茨城県日立市大沼町三丁目１８番２０号", "col2": null, "col3": "日立市", "LocName": "茨城県/日立市/大沼町/三丁目/１８番", "fX": 140.61809, "fY": 36.53071, "iConf": 5, "iLvl": 7, "field_10": null, "field_11": null, "field_12": null }, "geometry": { "type": "Point", "coordinates": [ 140.61809, 36.53071 ] } },
{ "type": "Feature", "properties": { "col0": "ファミリーマート日立大沼店", "col1": "茨城県日立市東金沢町５−１８−１", "col2": null, "col3": "日立市", "LocName": "茨城県/日立市/東金沢町/五丁目/１８番", "fX": 140.62489, "fY": 36.5375, "iConf": 5, "iLvl": 7, "field_10": null, "field_11": null, "field_12": null }, "geometry": { "type": "Point", "coordinates": [ 140.62489, 36.5375 ] } },
{ "type": "Feature", "properties": { "col0": "ファミリーマート鹿嶋平井店", "col1": "茨城県鹿嶋市平井１１２８−４５", "col2": null, "col3": "鹿嶋市", "LocName": "茨城県/鹿嶋市/平井/１１２８番地", "fX": 140.6485, "fY": 35.96938, "iConf": 5, "iLvl": 7, "field_10": null, "field_11": null, "field_12": null }, "geometry": { "type": "Point", "coordinates": [ 140.6485, 35.96938 ] } },
{ "type": "Feature", "properties": { "col0": "ファミリーマート小美玉田木谷店", "col1": "茨城県小美玉市田木谷１１１−１", "col2": null, "col3": "小美玉市", "LocName": "茨城県/小美玉市/田木谷", "fX": 140.34761, "fY": 36.17055, "iConf": 5, "iLvl": 5, "field_10": null, "field_11": null, "field_12": null }, "geometry": { "type": "Point", "coordinates": [ 140.34761, 36.17055 ] } },
{ "type": "Feature", "properties": { "col0": "ファミリーマート那珂瓜連店", "col1": "茨城県那珂市瓜連１３９２−１", "col2": null, "col3": "那珂市", "LocName": "茨城県/那珂市/瓜連", "fX": 140.4485, "fY": 36.50266, "iConf": 5, "iLvl": 5, "field_10": null, "field_11": null, "field_12": null }, "geometry": { "type": "Point", "coordinates": [ 140.4485, 36.50266 ] } },
{ "type": "Feature", "properties": { "col0": "ファミリーマート那珂竹ノ内店", "col1": "茨城県那珂市竹ノ内２丁目１−１", "col2": null, "col3": "那珂市", "LocName": "茨城県/那珂市/竹ノ内/二丁目/１番", "fX": 140.49852, "fY": 36.44918, "iConf": 5, "iLvl": 7, "field_10": null, "field_11": null, "field_12": null }, "geometry": { "type": "Point", "coordinates": [ 140.49852, 36.44918 ] } },
{ "type": "Feature", "properties": { "col0": "ファミリーマート守谷みずき野店", "col1": "茨城県守谷市みずき野５−乙７４−１２", "col2": null, "col3": "守谷市", "LocName": "茨城県/守谷市/みずき野/五丁目", "fX": 140.01242, "fY": 35.93694, "iConf": 5, "iLvl": 6, "field_10": null, "field_11": null, "field_12": null }, "geometry": { "type": "Point", "coordinates": [ 140.01242, 35.93694 ] } },
{ "type": "Feature", "properties": { "col0": "ファミリーマート守谷立沢店", "col1": "茨城県守谷市立沢２５２番地１", "col2": null, "col3": "守谷市", "LocName": "茨城県/守谷市/立沢/２５２番地", "fX": 139.97598, "fY": 35.95373, "iConf": 5, "iLvl": 7, "field_10": null, "field_11": null, "field_12": null }, "geometry": { "type": "Point", "coordinates": [ 139.97598, 35.95373 ] } },
{ "type": "Feature", "properties": { "col0": "ファミリーマート守谷美園店", "col1": "茨城県守谷市美園１丁目９番５", "col2": null, "col3": "守谷市", "LocName": "茨城県/守谷市/美園/一丁目/９番", "fX": 140.00325, "fY": 35.92851, "iConf": 5, "iLvl": 7, "field_10": null, "field_11": null, "field_12": null }, "geometry": { "type": "Point", "coordinates": [ 140.00325, 35.92851 ] } },
{ "type": "Feature", "properties": { "col0": "ファミリーマート守谷鈴塚店", "col1": "茨城県守谷市鈴塚字五十塚３０１番１", "col2": null, "col3": "守谷市", "LocName": "茨城県/守谷市/鈴塚/５０番地", "fX": 139.9817, "fY": 35.93786, "iConf": 5, "iLvl": 7, "field_10": null, "field_11": null, "field_12": null }, "geometry": { "type": "Point", "coordinates": [ 139.9817, 35.93786 ] } },
{ "type": "Feature", "properties": { "col0": "ファミリーマート結城工業団地前店", "col1": "茨城県結城市作の谷４００", "col2": null, "col3": "結城市", "LocName": "茨城県/結城市", "fX": 139.87715, "fY": 36.30526, "iConf": 5, "iLvl": 3, "field_10": null, "field_11": null, "field_12": null }, "geometry": { "type": "Point", "coordinates": [ 139.87715, 36.30526 ] } },
{ "type": "Feature", "properties": { "col0": "ファミリーマート千代田ＰＡ上り店", "col1": "茨城県かすみがうら市中佐谷字愛宕１７２−１", "col2": null, "col3": "かすみがうら市", "LocName": "茨城県/かすみがうら市/中佐谷", "fX": 140.22374, "fY": 36.15145, "iConf": 5, "iLvl": 5, "field_10": null, "field_11": null, "field_12": null }, "geometry": { "type": "Point", "coordinates": [ 140.22374, 36.15145 ] } },
{ "type": "Feature", "properties": { "col0": "ファミリーマート神栖中央公園前店", "col1": "茨城県神栖市大野原２丁目１−１７", "col2": null, "col3": "神栖市", "LocName": "茨城県/神栖市/大野原/二丁目/１番", "fX": 140.64995, "fY": 35.8946, "iConf": 5, "iLvl": 7, "field_10": null, "field_11": null, "field_12": null }, "geometry": { "type": "Point", "coordinates": [ 140.64995, 35.8946 ] } },
{ "type": "Feature", "properties": { "col0": "ファミリーマート常総新石下店", "col1": "茨城県常総市新石下３９８５番２", "col2": null, "col3": "常総市", "LocName": "茨城県/常総市/新石下/３９８５番地", "fX": 139.98149, "fY": 36.10984, "iConf": 5, "iLvl": 7, "field_10": null, "field_11": null, "field_12": null }, "geometry": { "type": "Point", "coordinates": [ 139.98149, 36.10984 ] } },
{ "type": "Feature", "properties": { "col0": "ファミリーマート石岡駅東口店", "col1": "茨城県石岡市石岡二丁目６番地３２", "col2": null, "col3": "石岡市", "LocName": "茨城県/石岡市/石岡/二丁目/６番", "fX": 140.28159, "fY": 36.19203, "iConf": 5, "iLvl": 7, "field_10": null, "field_11": null, "field_12": null }, "geometry": { "type": "Point", "coordinates": [ 140.28159, 36.19203 ] } },
{ "type": "Feature", "properties": { "col0": "ファミリーマート稲敷江戸崎店", "col1": "茨城県稲敷市犬塚１６１７−１６９", "col2": null, "col3": "稲敷市", "LocName": "茨城県/稲敷市/犬塚/１６１７番地", "fX": 140.29451, "fY": 35.97295, "iConf": 5, "iLvl": 7, "field_10": null, "field_11": null, "field_12": null }, "geometry": { "type": "Point", "coordinates": [ 140.29451, 35.97295 ] } },
{ "type": "Feature", "properties": { "col0": "ファミリーマート桜川白井店", "col1": "茨城県桜川市真壁町白井６４１番地１", "col2": null, "col3": "桜川市", "LocName": "茨城県/桜川市/真壁町白井", "fX": 140.12764, "fY": 36.28563, "iConf": 5, "iLvl": 5, "field_10": null, "field_11": null, "field_12": null }, "geometry": { "type": "Point", "coordinates": [ 140.12764, 36.28563 ] } },
{ "type": "Feature", "properties": { "col0": "ファミリーマート土浦西根南店", "col1": "茨城県土浦市西根南三丁目６−２０", "col2": null, "col3": "土浦市", "LocName": "茨城県/土浦市/西根南/三丁目/６番", "fX": 140.1552, "fY": 36.04312, "iConf": 5, "iLvl": 7, "field_10": null, "field_11": null, "field_12": null }, "geometry": { "type": "Point", "coordinates": [ 140.1552, 36.04312 ] } },
{ "type": "Feature", "properties": { "col0": "ファミリーマート宇都宮元今泉七丁目店", "col1": "栃木県宇都宮市元今泉七丁目１−２０", "col2": null, "col3": "宇都宮市", "LocName": "栃木県/宇都宮市/元今泉/七丁目/１番", "fX": 139.91278, "fY": 36.56297, "iConf": 5, "iLvl": 7, "field_10": null, "field_11": null, "field_12": null }, "geometry": { "type": "Point", "coordinates": [ 139.91278, 36.56297 ] } },
{ "type": "Feature", "properties": { "col0": "ファミリーマート宇都宮辰街道店", "col1": "栃木県宇都宮市平出町２３２１番４", "col2": null, "col3": "宇都宮市", "LocName": "栃木県/宇都宮市/平出町/２３２１番地", "fX": 139.95117, "fY": 36.5833, "iConf": 5, "iLvl": 7, "field_10": null, "field_11": null, "field_12": null }, "geometry": { "type": "Point", "coordinates": [ 139.95117, 36.5833 ] } },
{ "type": "Feature", "properties": { "col0": "ファミリーマート宇都宮戸祭店", "col1": "栃木県宇都宮市戸祭町３０３１−２", "col2": null, "col3": "宇都宮市", "LocName": "栃木県/宇都宮市/戸祭町/３０３１番地", "fX": 139.87541, "fY": 36.576, "iConf": 5, "iLvl": 7, "field_10": null, "field_11": null, "field_12": null }, "geometry": { "type": "Point", "coordinates": [ 139.87541, 36.576 ] } },
{ "type": "Feature", "properties": { "col0": "ファミリーマート宇都宮桜二丁目店", "col1": "栃木県宇都宮市桜二丁目２番２５号", "col2": null, "col3": "宇都宮市", "LocName": "栃木県/宇都宮市/桜/二丁目/２番", "fX": 139.86995, "fY": 36.565, "iConf": 5, "iLvl": 7, "field_10": null, "field_11": null, "field_12": null }, "geometry": { "type": "Point", "coordinates": [ 139.86995, 36.565 ] } },
{ "type": "Feature", "properties": { "col0": "ファミリーマート宇都宮砥上町店", "col1": "栃木県宇都宮市砥上町９４３−９", "col2": null, "col3": "宇都宮市", "LocName": "栃木県/宇都宮市/砥上町/９４３番地", "fX": 139.83725, "fY": 36.5511, "iConf": 5, "iLvl": 7, "field_10": null, "field_11": null, "field_12": null }, "geometry": { "type": "Point", "coordinates": [ 139.83725, 36.5511 ] } },
{ "type": "Feature", "properties": { "col0": "ファミリーマート済生会宇都宮病院店", "col1": "栃木県宇都宮市竹林町字高田９１８番地１", "col2": null, "col3": "宇都宮市", "LocName": "栃木県/宇都宮市/竹林町", "fX": 139.90405, "fY": 36.57776, "iConf": 5, "iLvl": 5, "field_10": null, "field_11": null, "field_12": null }, "geometry": { "type": "Point", "coordinates": [ 139.90405, 36.57776 ] } },
{ "type": "Feature", "properties": { "col0": "ファミリーマート子ども科学館前店", "col1": "栃木県宇都宮市西川田本町三丁目２４番２０号", "col2": null, "col3": "宇都宮市", "LocName": "栃木県/宇都宮市/西川田本町/三丁目/２４番", "fX": 139.84166, "fY": 36.51375, "iConf": 5, "iLvl": 7, "field_10": null, "field_11": null, "field_12": null }, "geometry": { "type": "Point", "coordinates": [ 139.84166, 36.51375 ] } },
{ "type": "Feature", "properties": { "col0": "ファミリーマート宇都宮西川田駅前店", "col1": "栃木県宇都宮市西川田本町二丁目１２９５番１１他７筆", "col2": null, "col3": "宇都宮市", "LocName": "栃木県/宇都宮市/西川田本町/二丁目", "fX": 139.84802, "fY": 36.51522, "iConf": 5, "iLvl": 6, "field_10": null, "field_11": null, "field_12": null }, "geometry": { "type": "Point", "coordinates": [ 139.84802, 36.51522 ] } },
{ "type": "Feature", "properties": { "col0": "ファミリーマート宇都宮豊郷台店", "col1": "栃木県宇都宮市長岡町４５番地１", "col2": null, "col3": "宇都宮市", "LocName": "栃木県/宇都宮市/長岡町/４５番地", "fX": 139.88821, "fY": 36.59773, "iConf": 5, "iLvl": 7, "field_10": null, "field_11": null, "field_12": null }, "geometry": { "type": "Point", "coordinates": [ 139.88821, 36.59773 ] } },
{ "type": "Feature", "properties": { "col0": "ファミリーマート那須塩原下永田店", "col1": "栃木県那須塩原市下永田５丁目１３８９−１８", "col2": null, "col3": "那須塩原市", "LocName": "栃木県/那須塩原市/下永田/五丁目/１３８９番地", "fX": 139.99081, "fY": 36.87272, "iConf": 5, "iLvl": 7, "field_10": null, "field_11": null, "field_12": null }, "geometry": { "type": "Point", "coordinates": [ 139.99081, 36.87272 ] } },
{ "type": "Feature", "properties": { "col0": "ファミリーマートベツイ栃木倭町店", "col1": "栃木県栃木市倭町１０番１号", "col2": null, "col3": "栃木市", "LocName": "栃木県/栃木市/倭町/１０番", "fX": 139.73395, "fY": 36.37809, "iConf": 5, "iLvl": 7, "field_10": null, "field_11": null, "field_12": null }, "geometry": { "type": "Point", "coordinates": [ 139.73395, 36.37809 ] } },
{ "type": "Feature", "properties": { "col0": "ファミリーマートベツイ栃木大宮店", "col1": "栃木県栃木市大宮町字竜神前５３４番", "col2": null, "col3": "栃木市", "LocName": "栃木県/栃木市/大宮町", "fX": 139.76257, "fY": 36.38958, "iConf": 5, "iLvl": 5, "field_10": null, "field_11": null, "field_12": null }, "geometry": { "type": "Point", "coordinates": [ 139.76257, 36.38958 ] } },
{ "type": "Feature", "properties": { "col0": "ファミリーマート栃木大平町店", "col1": "栃木県栃木市大平町富田３７１番地２", "col2": null, "col3": "栃木市", "LocName": "栃木県/栃木市/大平町富田/３７１番地", "fX": 139.69743, "fY": 36.33783, "iConf": 5, "iLvl": 7, "field_10": null, "field_11": null, "field_12": null }, "geometry": { "type": "Point", "coordinates": [ 139.69743, 36.33783 ] } },
{ "type": "Feature", "properties": { "col0": "ファミリーマート栃木樋ノ口店", "col1": "栃木県栃木市樋ノ口町字中芝原７５番４", "col2": null, "col3": "栃木市", "LocName": "栃木県/栃木市/樋ノ口町", "fX": 139.75795, "fY": 36.36072, "iConf": 5, "iLvl": 5, "field_10": null, "field_11": null, "field_12": null }, "geometry": { "type": "Point", "coordinates": [ 139.75795, 36.36072 ] } },
{ "type": "Feature", "properties": { "col0": "ファミリーマート自治医科大学附属病院店", "col1": "栃木県下野市薬師寺３３１１−１Ｊプラザ１階", "col2": null, "col3": "下野市", "LocName": "栃木県/下野市/薬師寺/３３１１番地", "fX": 139.85852, "fY": 36.4034, "iConf": 5, "iLvl": 7, "field_10": null, "field_11": null, "field_12": null }, "geometry": { "type": "Point", "coordinates": [ 139.85852, 36.4034 ] } },
{ "type": "Feature", "properties": { "col0": "ファミリーマートさくら櫻野店", "col1": "栃木県さくら市櫻野４９６番地", "col2": null, "col3": "さくら市", "LocName": "栃木県/さくら市/櫻野/４９６番地", "fX": 139.97507, "fY": 36.68261, "iConf": 5, "iLvl": 7, "field_10": null, "field_11": null, "field_12": null }, "geometry": { "type": "Point", "coordinates": [ 139.97507, 36.68261 ] } },
{ "type": "Feature", "properties": { "col0": "ファミリーマートさくら東原店", "col1": "栃木県さくら市氏家４５０６番地７", "col2": null, "col3": "さくら市", "LocName": "栃木県/さくら市/氏家/４５０６番地", "fX": 139.96912, "fY": 36.6889, "iConf": 5, "iLvl": 7, "field_10": null, "field_11": null, "field_12": null }, "geometry": { "type": "Point", "coordinates": [ 139.96912, 36.6889 ] } },
{ "type": "Feature", "properties": { "col0": "ファミリーマートさくら長久保店", "col1": "栃木県さくら市長久保字西原１４６６番２", "col2": null, "col3": "さくら市", "LocName": "栃木県/さくら市/長久保", "fX": 139.951, "fY": 36.70988, "iConf": 5, "iLvl": 5, "field_10": null, "field_11": null, "field_12": null }, "geometry": { "type": "Point", "coordinates": [ 139.951, 36.70988 ] } },
{ "type": "Feature", "properties": { "col0": "ファミリーマート上三川ゆうきが丘店", "col1": "栃木県河内郡上三川町大字上神主５３６番地４", "col2": null, "col3": "河内郡上三川町", "LocName": "栃木県/河内郡/上三川町/上神主/５３６番地", "fX": 139.87935, "fY": 36.44999, "iConf": 5, "iLvl": 7, "field_10": null, "field_11": null, "field_12": null }, "geometry": { "type": "Point", "coordinates": [ 139.87935, 36.44999 ] } },
{ "type": "Feature", "properties": { "col0": "ファミリーマート鹿沼上奈良部町店", "col1": "栃木県鹿沼市上奈良部町１番地６", "col2": null, "col3": "鹿沼市", "LocName": "栃木県/鹿沼市/上奈良部町", "fX": 139.76671, "fY": 36.53298, "iConf": 5, "iLvl": 5, "field_10": null, "field_11": null, "field_12": null }, "geometry": { "type": "Point", "coordinates": [ 139.76671, 36.53298 ] } },
{ "type": "Feature", "properties": { "col0": "ファミリーマート高根沢石末店", "col1": "栃木県塩谷郡高根沢町大字石末３２４２番地２", "col2": null, "col3": "塩谷郡高根沢町", "LocName": "栃木県/塩谷郡/高根沢町/石末", "fX": 140.00148, "fY": 36.62929, "iConf": 5, "iLvl": 5, "field_10": null, "field_11": null, "field_12": null }, "geometry": { "type": "Point", "coordinates": [ 140.00148, 36.62929 ] } },
{ "type": "Feature", "properties": { "col0": "ファミリーマート高根沢宝石台店", "col1": "栃木県塩谷郡高根沢町宝石台４−１３−９", "col2": null, "col3": "塩谷郡高根沢町", "LocName": "栃木県/塩谷郡/高根沢町/宝石台/四丁目/１３番", "fX": 139.99486, "fY": 36.61555, "iConf": 5, "iLvl": 7, "field_10": null, "field_11": null, "field_12": null }, "geometry": { "type": "Point", "coordinates": [ 139.99486, 36.61555 ] } },
{ "type": "Feature", "properties": { "col0": "ファミリーマート佐野植野町店", "col1": "栃木県佐野市植野町２０５９番地１", "col2": null, "col3": "佐野市", "LocName": "栃木県/佐野市/植野町/２０５９番地", "fX": 139.57812, "fY": 36.3065, "iConf": 5, "iLvl": 7, "field_10": null, "field_11": null, "field_12": null }, "geometry": { "type": "Point", "coordinates": [ 139.57812, 36.3065 ] } },
{ "type": "Feature", "properties": { "col0": "ファミリーマート小山出井北店", "col1": "栃木県小山市大字出井１２５２番地１０", "col2": null, "col3": "小山市", "LocName": "栃木県/小山市/出井", "fX": 139.83984, "fY": 36.3405, "iConf": 5, "iLvl": 5, "field_10": null, "field_11": null, "field_12": null }, "geometry": { "type": "Point", "coordinates": [ 139.83984, 36.3405 ] } },
{ "type": "Feature", "properties": { "col0": "ファミリーマート小山稲葉郷店", "col1": "栃木県小山市大字稲葉郷６３番地６", "col2": null, "col3": "小山市", "LocName": "栃木県/小山市/稲葉郷", "fX": 139.81303, "fY": 36.325, "iConf": 5, "iLvl": 5, "field_10": null, "field_11": null, "field_12": null }, "geometry": { "type": "Point", "coordinates": [ 139.81303, 36.325 ] } },
{ "type": "Feature", "properties": { "col0": "ファミリーマート小山上立木店", "col1": "栃木県小山市大字立木６３６番地２", "col2": null, "col3": "小山市", "LocName": "栃木県/小山市/立木", "fX": 139.78357, "fY": 36.33018, "iConf": 5, "iLvl": 5, "field_10": null, "field_11": null, "field_12": null }, "geometry": { "type": "Point", "coordinates": [ 139.78357, 36.33018 ] } },
{ "type": "Feature", "properties": { "col0": "ファミリーマート小山神鳥谷店", "col1": "栃木県小山市神鳥谷二丁目３３番２３号", "col2": null, "col3": "小山市", "LocName": "栃木県/小山市/神鳥谷/二丁目/３３番", "fX": 139.79288, "fY": 36.29827, "iConf": 5, "iLvl": 7, "field_10": null, "field_11": null, "field_12": null }, "geometry": { "type": "Point", "coordinates": [ 139.79288, 36.29827 ] } },
{ "type": "Feature", "properties": { "col0": "ファミリーマート日光松原店", "col1": "栃木県日光市松原町２６７−１他２筆", "col2": null, "col3": "日光市", "LocName": "栃木県/日光市/松原町/２６７番地", "fX": 139.61737, "fY": 36.74811, "iConf": 5, "iLvl": 7, "field_10": null, "field_11": null, "field_12": null }, "geometry": { "type": "Point", "coordinates": [ 139.61737, 36.74811 ] } },
{ "type": "Feature", "properties": { "col0": "ファミリーマート日光荊沢店", "col1": "栃木県日光市荊沢５９９−１２６", "col2": null, "col3": "日光市", "LocName": "栃木県/日光市/荊沢/５９９番地", "fX": 139.72209, "fY": 36.72525, "iConf": 5, "iLvl": 7, "field_10": null, "field_11": null, "field_12": null }, "geometry": { "type": "Point", "coordinates": [ 139.72209, 36.72525 ] } },
{ "type": "Feature", "properties": { "col0": "ファミリーマート日光轟店", "col1": "栃木県日光市轟字合羽山２４番１", "col2": null, "col3": "日光市", "LocName": "栃木県/日光市/轟", "fX": 139.73891, "fY": 36.75531, "iConf": 5, "iLvl": 5, "field_10": null, "field_11": null, "field_12": null }, "geometry": { "type": "Point", "coordinates": [ 139.73891, 36.75531 ] } },
{ "type": "Feature", "properties": { "col0": "ファミリーマート真岡小林店", "col1": "栃木県真岡市小林１４２７番地１", "col2": null, "col3": "真岡市", "LocName": "栃木県/真岡市/小林/１４２７番地", "fX": 140.04449, "fY": 36.43836, "iConf": 5, "iLvl": 7, "field_10": null, "field_11": null, "field_12": null }, "geometry": { "type": "Point", "coordinates": [ 140.04449, 36.43836 ] } },
{ "type": "Feature", "properties": { "col0": "ファミリーマート真岡荒町三丁目店", "col1": "栃木県真岡市荒町３丁目４８番３", "col2": null, "col3": "真岡市", "LocName": "栃木県/真岡市/荒町/三丁目/４８番地", "fX": 140.01503, "fY": 36.44493, "iConf": 5, "iLvl": 7, "field_10": null, "field_11": null, "field_12": null }, "geometry": { "type": "Point", "coordinates": [ 140.01503, 36.44493 ] } },
{ "type": "Feature", "properties": { "col0": "ファミリーマート大田原南金丸店", "col1": "栃木県大田原市南金丸字東原６１８番１", "col2": null, "col3": "大田原市", "LocName": "栃木県/大田原市/南金丸", "fX": 140.09398, "fY": 36.85764, "iConf": 5, "iLvl": 5, "field_10": null, "field_11": null, "field_12": null }, "geometry": { "type": "Point", "coordinates": [ 140.09398, 36.85764 ] } },
{ "type": "Feature", "properties": { "col0": "ファミリーマート大田原小滝店", "col1": "栃木県大田原市小滝１０７７番２", "col2": null, "col3": "大田原市", "LocName": "栃木県/大田原市/小滝", "fX": 140.0663, "fY": 36.89345, "iConf": 5, "iLvl": 5, "field_10": null, "field_11": null, "field_12": null }, "geometry": { "type": "Point", "coordinates": [ 140.0663, 36.89345 ] } },
{ "type": "Feature", "properties": { "col0": "ファミリーマート六本木通り店", "col1": "東京都港区六本木７丁目１５−１７", "col2": null, "col3": "港区", "LocName": "東京都/港区/六本木/七丁目/１５番", "fX": 139.73042, "fY": 35.66284, "iConf": 5, "iLvl": 7, "field_10": null, "field_11": null, "field_12": null }, "geometry": { "type": "Point", "coordinates": [ 139.73042, 35.66284 ] } },
{ "type": "Feature", "properties": { "col0": "ファミリーマート広尾駅前店", "col1": "東京都港区南麻布５丁目１０−２６", "col2": null, "col3": "港区", "LocName": "東京都/港区/南麻布/五丁目/１０番", "fX": 139.72263, "fY": 35.65329, "iConf": 5, "iLvl": 7, "field_10": null, "field_11": null, "field_12": null }, "geometry": { "type": "Point", "coordinates": [ 139.72263, 35.65329 ] } },
{ "type": "Feature", "properties": { "col0": "ファミリーマート新橋桜田公園前店", "col1": "東京都港区新橋４−１１−１", "col2": null, "col3": "港区", "LocName": "東京都/港区/新橋/四丁目/１１番", "fX": 139.75648, "fY": 35.66473, "iConf": 5, "iLvl": 7, "field_10": null, "field_11": null, "field_12": null }, "geometry": { "type": "Point", "coordinates": [ 139.75648, 35.66473 ] } },
{ "type": "Feature", "properties": { "col0": "ファミリーマート新橋五丁目店", "col1": "東京都港区新橋５丁目１４−１０新橋スクエアビル", "col2": null, "col3": "港区", "LocName": "東京都/港区/新橋/五丁目/１４番", "fX": 139.75638, "fY": 35.66215, "iConf": 5, "iLvl": 7, "field_10": null, "field_11": null, "field_12": null }, "geometry": { "type": "Point", "coordinates": [ 139.75638, 35.66215 ] } },
{ "type": "Feature", "properties": { "col0": "ファミリーマート汐留タワー店", "col1": "東京都港区東新橋１丁目６−３", "col2": null, "col3": "港区", "LocName": "東京都/港区/東新橋/一丁目/６番", "fX": 139.76015, "fY": 35.66426, "iConf": 5, "iLvl": 7, "field_10": null, "field_11": null, "field_12": null }, "geometry": { "type": "Point", "coordinates": [ 139.76015, 35.66426 ] } },
{ "type": "Feature", "properties": { "col0": "ファミリーマート汐留イタリア街店", "col1": "東京都港区東新橋２丁目４−１サンマリーノ汐留", "col2": null, "col3": "港区", "LocName": "東京都/港区/東新橋/二丁目/４番", "fX": 139.75757, "fY": 35.6618, "iConf": 5, "iLvl": 7, "field_10": null, "field_11": null, "field_12": null }, "geometry": { "type": "Point", "coordinates": [ 139.75757, 35.6618 ] } },
{ "type": "Feature", "properties": { "col0": "ファミリーマート浜松町一丁目店", "col1": "東京都港区浜松町１−２７−１７三和ビル", "col2": null, "col3": "港区", "LocName": "東京都/港区/浜松町/一丁目/２７番", "fX": 139.75513, "fY": 35.65767, "iConf": 5, "iLvl": 7, "field_10": null, "field_11": null, "field_12": null }, "geometry": { "type": "Point", "coordinates": [ 139.75513, 35.65767 ] } },
{ "type": "Feature", "properties": { "col0": "ファミリーマート南山堂竹芝駅前店", "col1": "東京都港区海岸１丁目１３−３", "col2": null, "col3": "港区", "LocName": "東京都/港区/海岸/一丁目/１３番", "fX": 139.76181, "fY": 35.65444, "iConf": 5, "iLvl": 7, "field_10": null, "field_11": null, "field_12": null }, "geometry": { "type": "Point", "coordinates": [ 139.76181, 35.65444 ] } },
{ "type": "Feature", "properties": { "col0": "ファミリーマート芝五丁目店", "col1": "東京都港区芝５−１０−８", "col2": null, "col3": "港区", "LocName": "東京都/港区/芝/五丁目/１０番", "fX": 139.74622, "fY": 35.64923, "iConf": 5, "iLvl": 7, "field_10": null, "field_11": null, "field_12": null }, "geometry": { "type": "Point", "coordinates": [ 139.74622, 35.64923 ] } },
{ "type": "Feature", "properties": { "col0": "ファミリーマート麻布十番商店街通り店", "col1": "東京都港区麻布十番２丁目２−４", "col2": null, "col3": "港区", "LocName": "東京都/港区/麻布十番/二丁目/２番", "fX": 139.73566, "fY": 35.65541, "iConf": 5, "iLvl": 7, "field_10": null, "field_11": null, "field_12": null }, "geometry": { "type": "Point", "coordinates": [ 139.73566, 35.65541 ] } },
{ "type": "Feature", "properties": { "col0": "ファミリーマート上石神井駅前店", "col1": "東京都練馬区上石神井１丁目１３−１３", "col2": null, "col3": "練馬区", "LocName": "東京都/練馬区/上石神井/一丁目/１３番", "fX": 139.59103, "fY": 35.72572, "iConf": 5, "iLvl": 7, "field_10": null, "field_11": null, "field_12": null }, "geometry": { "type": "Point", "coordinates": [ 139.59103, 35.72572 ] } },
{ "type": "Feature", "properties": { "col0": "ファミリーマート練馬南田中一丁目店", "col1": "東京都練馬区南田中１丁目６番１６号", "col2": null, "col3": "練馬区", "LocName": "東京都/練馬区/南田中/一丁目/６番", "fX": 139.62079, "fY": 35.73086, "iConf": 5, "iLvl": 7, "field_10": null, "field_11": null, "field_12": null }, "geometry": { "type": "Point", "coordinates": [ 139.62079, 35.73086 ] } },
{ "type": "Feature", "properties": { "col0": "ファミリーマート練馬土支田二丁目店", "col1": "東京都練馬区土支田２丁目１５−１２", "col2": null, "col3": "練馬区", "LocName": "東京都/練馬区/土支田/二丁目/１５番", "fX": 139.61324, "fY": 35.76114, "iConf": 5, "iLvl": 7, "field_10": null, "field_11": null, "field_12": null }, "geometry": { "type": "Point", "coordinates": [ 139.61324, 35.76114 ] } },
{ "type": "Feature", "properties": { "col0": "ファミリーマート朝霞駐屯地店", "col1": "東京都練馬区大泉学園町陸上自衛隊朝霞駐屯地内", "col2": null, "col3": "練馬区", "LocName": "東京都/練馬区/大泉学園町", "fX": 139.59067, "fY": 35.76015, "iConf": 5, "iLvl": 5, "field_10": null, "field_11": null, "field_12": null }, "geometry": { "type": "Point", "coordinates": [ 139.59067, 35.76015 ] } },
{ "type": "Feature", "properties": { "col0": "ファミリーマート平和台環八通り店", "col1": "東京都練馬区平和台４丁目２０−１０", "col2": null, "col3": "練馬区", "LocName": "東京都/練馬区/平和台/四丁目/２０番", "fX": 139.65697, "fY": 35.75964, "iConf": 5, "iLvl": 7, "field_10": null, "field_11": null, "field_12": null }, "geometry": { "type": "Point", "coordinates": [ 139.65697, 35.75964 ] } },
{ "type": "Feature", "properties": { "col0": "ファミリーマート江古田駅南口店", "col1": "東京都練馬区旭丘１丁目７７−９", "col2": null, "col3": "練馬区", "LocName": "東京都/練馬区/旭丘/一丁目/７７番", "fX": 139.67241, "fY": 35.73732, "iConf": 5, "iLvl": 7, "field_10": null, "field_11": null, "field_12": null }, "geometry": { "type": "Point", "coordinates": [ 139.67241, 35.73732 ] } },
{ "type": "Feature", "properties": { "col0": "ファミリーマート大泉学園駅前店", "col1": "東京都練馬区東大泉５−４１−１４", "col2": null, "col3": "練馬区", "LocName": "東京都/練馬区/東大泉/五丁目/４１番", "fX": 139.58717, "fY": 35.74895, "iConf": 5, "iLvl": 7, "field_10": null, "field_11": null, "field_12": null }, "geometry": { "type": "Point", "coordinates": [ 139.58717, 35.74895 ] } },
{ "type": "Feature", "properties": { "col0": "ファミリーマート田柄豊島園通り店", "col1": "東京都練馬区田柄４−３４−６", "col2": null, "col3": "練馬区", "LocName": "東京都/練馬区/田柄/四丁目/３４番", "fX": 139.63795, "fY": 35.76611, "iConf": 5, "iLvl": 7, "field_10": null, "field_11": null, "field_12": null }, "geometry": { "type": "Point", "coordinates": [ 139.63795, 35.76611 ] } },
{ "type": "Feature", "properties": { "col0": "ファミリーマート練馬石神井三丁目店", "col1": "東京都練馬区石神井町３丁目２５−２１", "col2": null, "col3": "練馬区", "LocName": "東京都/練馬区/石神井町/三丁目/２５番", "fX": 139.60471, "fY": 35.74354, "iConf": 5, "iLvl": 7, "field_10": null, "field_11": null, "field_12": null }, "geometry": { "type": "Point", "coordinates": [ 139.60471, 35.74354 ] } },
{ "type": "Feature", "properties": { "col0": "ファミリーマート石神井銀座通り店", "col1": "東京都練馬区石神井町３丁目２８−１", "col2": null, "col3": "練馬区", "LocName": "東京都/練馬区/石神井町/三丁目/２８番", "fX": 139.60332, "fY": 35.74241, "iConf": 5, "iLvl": 7, "field_10": null, "field_11": null, "field_12": null }, "geometry": { "type": "Point", "coordinates": [ 139.60332, 35.74241 ] } },
{ "type": "Feature", "properties": { "col0": "トモニー練馬駅店", "col1": "東京都練馬区練馬１−３−５", "col2": null, "col3": "練馬区", "LocName": "東京都/練馬区/練馬/一丁目/３番", "fX": 139.65518, "fY": 35.73792, "iConf": 5, "iLvl": 7, "field_10": null, "field_11": null, "field_12": null }, "geometry": { "type": "Point", "coordinates": [ 139.65518, 35.73792 ] } },
{ "type": "Feature", "properties": { "col0": "ファミリーマート豊島園駅前店", "col1": "東京都練馬区練馬４−１７−２", "col2": null, "col3": "練馬区", "LocName": "東京都/練馬区/練馬/四丁目/１７番", "fX": 139.64772, "fY": 35.74271, "iConf": 5, "iLvl": 7, "field_10": null, "field_11": null, "field_12": null }, "geometry": { "type": "Point", "coordinates": [ 139.64772, 35.74271 ] } },
{ "type": "Feature", "properties": { "col0": "ファミリーマート江古田千川通り店", "col1": "東京都練馬区豊玉上１−２０−１", "col2": null, "col3": "練馬区", "LocName": "東京都/練馬区/豊玉上/一丁目/２０番", "fX": 139.67018, "fY": 35.73659, "iConf": 5, "iLvl": 7, "field_10": null, "field_11": null, "field_12": null }, "geometry": { "type": "Point", "coordinates": [ 139.67018, 35.73659 ] } },
{ "type": "Feature", "properties": { "col0": "ファミリーマート桜台駅前店", "col1": "東京都練馬区豊玉上２丁目１４−９", "col2": null, "col3": "練馬区", "LocName": "東京都/練馬区/豊玉上/二丁目/１４番", "fX": 139.66254, "fY": 35.73793, "iConf": 5, "iLvl": 7, "field_10": null, "field_11": null, "field_12": null }, "geometry": { "type": "Point", "coordinates": [ 139.66254, 35.73793 ] } },
{ "type": "Feature", "properties": { "col0": "ファミリーマート豊玉南三丁目店", "col1": "東京都練馬区豊玉南三丁目２番９号", "col2": null, "col3": "練馬区", "LocName": "東京都/練馬区/豊玉南/三丁目/２番", "fX": 139.65382, "fY": 35.7291, "iConf": 5, "iLvl": 7, "field_10": null, "field_11": null, "field_12": null }, "geometry": { "type": "Point", "coordinates": [ 139.65382, 35.7291 ] } },
{ "type": "Feature", "properties": { "col0": "ファミリーマート練馬高松一丁目店", "col1": "東京都練馬区高松１丁目１２−１", "col2": null, "col3": "練馬区", "LocName": "東京都/練馬区/高松/一丁目/１２番", "fX": 139.63275, "fY": 35.74574, "iConf": 5, "iLvl": 7, "field_10": null, "field_11": null, "field_12": null }, "geometry": { "type": "Point", "coordinates": [ 139.63275, 35.74574 ] } },