{
"type": "FeatureCollection",
"name": "domdom_store_list_kanto",
"crs": { "type": "name", "properties": { "name": "urn:ogc:def:crs:OGC:1.3:CRS84" } },
"features": [
{ "type": "Feature", "properties": { "店名": "ファミリーマート横浜星川駅前店", "住所": "神奈川県横浜市保土ケ谷区星川二丁目４−１星川ＳＦビル１Ｆ", "自治体": "横浜市", "fX": 139.59369, "fY": 35.45903 }, "geometry": { "type": "Point", "coordinates": [ 139.59369, 35.45903 ] } },
{ "type": "Feature", "properties": { "店名": "ファミリーマート星川二丁目店", "住所": "神奈川県横浜市保土ケ谷区星川２丁目８−２２", "自治体": "横浜市", "fX": 139.59169, "fY": 35.45839 }, "geometry": { "type": "Point", "coordinates": [ 139.59169, 35.45839 ] } },
{ "type": "Feature", "properties": { "店名": "ファミリーマート横浜釜台町店", "住所": "神奈川県横浜市保土ケ谷区釜台町４６−１２", "自治体": "横浜市", "fX": 139.58441, "fY": 35.47319 }, "geometry": { "type": "Point", "coordinates": [ 139.58441, 35.47319 ] } },
{ "type": "Feature", "properties": { "店名": "ファミリーマート弘明寺中里店", "住所": "神奈川県横浜市南区中里３丁目１−５", "自治体": "横浜市", "fX": 139.59694, "fY": 35.42054 }, "geometry": { "type": "Point", "coordinates": [ 139.59694, 35.42054 ] } },
{ "type": "Feature", "properties": { "店名": "ファミリーマート六ッ川二丁目店", "住所": "神奈川県横浜市南区六ツ川二丁目４７−４", "自治体": "横浜市", "fX": 139.5853, "fY": 35.41883 }, "geometry": { "type": "Point", "coordinates": [ 139.5853, 35.41883 ] } },
{ "type": "Feature", "properties": { "店名": "ファミリーマート横浜吉野町駅前店", "住所": "神奈川県横浜市南区吉野町３−１６", "自治体": "横浜市", "fX": 139.61911, "fY": 35.43543 }, "geometry": { "type": "Point", "coordinates": [ 139.61911, 35.43543 ] } },
{ "type": "Feature", "properties": { "店名": "ファミリーマート蒔田駅前店", "住所": "神奈川県横浜市南区宮元町三丁目４６番２", "自治体": "横浜市", "fX": 139.61008, "fY": 35.43025 }, "geometry": { "type": "Point", "coordinates": [ 139.61008, 35.43025 ] } },
{ "type": "Feature", "properties": { "店名": "ファミリーマート黄金町駅前店", "住所": "神奈川県横浜市南区白金町１−１", "自治体": "横浜市", "fX": 139.62302, "fY": 35.43963 }, "geometry": { "type": "Point", "coordinates": [ 139.62302, 35.43963 ] } },
{ "type": "Feature", "properties": { "店名": "ファミリーマート阪東橋東口店", "住所": "神奈川県横浜市南区高根町２−１３", "自治体": "横浜市", "fX": 139.62596, "fY": 35.43744 }, "geometry": { "type": "Point", "coordinates": [ 139.62596, 35.43744 ] } },
{ "type": "Feature", "properties": { "店名": "ファミリーマート戸塚ＰＡ店", "住所": "神奈川県横浜市戸塚区上矢部町８４９", "自治体": "横浜市", "fX": 139.54004, "fY": 35.42362 }, "geometry": { "type": "Point", "coordinates": [ 139.54004, 35.42362 ] } },
{ "type": "Feature", "properties": { "店名": "ファミリーマート東戸塚名瀬下店", "住所": "神奈川県横浜市戸塚区名瀬町５２７", "自治体": "横浜市", "fX": 139.54068, "fY": 35.42674 }, "geometry": { "type": "Point", "coordinates": [ 139.54068, 35.42674 ] } },
{ "type": "Feature", "properties": { "店名": "ファミリーマート東戸塚記念病院前店", "住所": "神奈川県横浜市戸塚区品濃町５５１−３", "自治体": "横浜市", "fX": 139.5602, "fY": 35.43176 }, "geometry": { "type": "Point", "coordinates": [ 139.5602, 35.43176 ] } },
{ "type": "Feature", "properties": { "店名": "ファミリーマートサンズ戸塚深谷町店", "住所": "神奈川県横浜市戸塚区深谷１７１７−１", "自治体": "横浜市", "fX": 139.5023, "fY": 35.38641 }, "geometry": { "type": "Point", "coordinates": [ 139.5023, 35.38641 ] } },
{ "type": "Feature", "properties": { "店名": "ファミリーマート舞岡町店", "住所": "神奈川県横浜市戸塚区舞岡町３５６３番地", "自治体": "横浜市", "fX": 139.55228, "fY": 35.41005 }, "geometry": { "type": "Point", "coordinates": [ 139.55228, 35.41005 ] } },
{ "type": "Feature", "properties": { "店名": "ファミリーマート鶴ヶ峰本町店", "住所": "神奈川県横浜市旭区鶴ヶ峰本町２丁目４５−１７", "自治体": "横浜市", "fX": 139.54713, "fY": 35.47808 }, "geometry": { "type": "Point", "coordinates": [ 139.54713, 35.47808 ] } },
{ "type": "Feature", "properties": { "店名": "ファミリーマート本郷小学校前店", "住所": "神奈川県横浜市栄区中野町６−１", "自治体": "横浜市", "fX": 139.56081, "fY": 35.3636 }, "geometry": { "type": "Point", "coordinates": [ 139.56081, 35.3636 ] } },
{ "type": "Feature", "properties": { "店名": "ファミリーマート栄スポーツセンター店", "住所": "神奈川県横浜市栄区公田町５０６−５", "自治体": "横浜市", "fX": 139.55345, "fY": 35.36226 }, "geometry": { "type": "Point", "coordinates": [ 139.55345, 35.36226 ] } },
{ "type": "Feature", "properties": { "店名": "ファミリーマート泉かまくらみち店", "住所": "神奈川県横浜市泉区和泉中央南１丁目２１−１０", "自治体": "横浜市", "fX": 139.50027, "fY": 35.40915 }, "geometry": { "type": "Point", "coordinates": [ 139.50027, 35.40915 ] } },
{ "type": "Feature", "properties": { "店名": "ファミリーマートサンズ新吉田店", "住所": "神奈川県横浜市港北区新吉田東８丁目４６−１３", "自治体": "横浜市", "fX": 139.61398, "fY": 35.53339 }, "geometry": { "type": "Point", "coordinates": [ 139.61398, 35.53339 ] } },
{ "type": "Feature", "properties": { "店名": "ファミリーマートスリーウェル新横浜店", "住所": "神奈川県横浜市港北区新横浜１−２４−３", "自治体": "横浜市", "fX": 139.60822, "fY": 35.50296 }, "geometry": { "type": "Point", "coordinates": [ 139.60822, 35.50296 ] } },
{ "type": "Feature", "properties": { "店名": "ファミリーマート菊名駅東口店", "住所": "神奈川県横浜市港北区菊名４−３−２１", "自治体": "横浜市", "fX": 139.63217, "fY": 35.51028 }, "geometry": { "type": "Point", "coordinates": [ 139.63217, 35.51028 ] } },
{ "type": "Feature", "properties": { "店名": "ファミリーマート上大岡駅前店", "住所": "神奈川県横浜市港南区上大岡西一丁目１６番２５号上大岡ファースト", "自治体": "横浜市", "fX": 139.59534, "fY": 35.40815 }, "geometry": { "type": "Point", "coordinates": [ 139.59534, 35.40815 ] } },
{ "type": "Feature", "properties": { "店名": "ファミリーマート丸山台三丁目店", "住所": "神奈川県横浜市港南区丸山台三丁目２１−１", "自治体": "横浜市", "fX": 139.56848, "fY": 35.39888 }, "geometry": { "type": "Point", "coordinates": [ 139.56848, 35.39888 ] } },
{ "type": "Feature", "properties": { "店名": "ファミリーマート港南中央通店", "住所": "神奈川県横浜市港南区港南中央通８−４１", "自治体": "横浜市", "fX": 139.58987, "fY": 35.40008 }, "geometry": { "type": "Point", "coordinates": [ 139.58987, 35.40008 ] } },
{ "type": "Feature", "properties": { "店名": "ファミリーマート港南台七丁目店", "住所": "神奈川県横浜市港南区港南台７−９−１", "自治体": "横浜市", "fX": 139.58746, "fY": 35.37364 }, "geometry": { "type": "Point", "coordinates": [ 139.58746, 35.37364 ] } },
{ "type": "Feature", "properties": { "店名": "ファミリーマート横浜南高校前店", "住所": "神奈川県横浜市港南区港南２−２８−３０", "自治体": "横浜市", "fX": 139.58235, "fY": 35.40538 }, "geometry": { "type": "Point", "coordinates": [ 139.58235, 35.40538 ] } },
{ "type": "Feature", "properties": { "店名": "ファミリーマート横浜野庭店", "住所": "神奈川県横浜市港南区野庭町１２６６", "自治体": "横浜市", "fX": 139.57143, "fY": 35.39159 }, "geometry": { "type": "Point", "coordinates": [ 139.57143, 35.39159 ] } },
{ "type": "Feature", "properties": { "店名": "ファミリーマート下瀬谷二丁目店", "住所": "神奈川県横浜市瀬谷区下瀬谷２−１７", "自治体": "横浜市", "fX": 139.48074, "fY": 35.45742 }, "geometry": { "type": "Point", "coordinates": [ 139.48074, 35.45742 ] } },
{ "type": "Feature", "properties": { "店名": "ファミリーマート磯子新杉田店", "住所": "神奈川県横浜市磯子区新杉田町５", "自治体": "横浜市", "fX": 139.61797, "fY": 35.38853 }, "geometry": { "type": "Point", "coordinates": [ 139.61797, 35.38853 ] } },
{ "type": "Feature", "properties": { "店名": "ファミリーマート根岸駅北店", "住所": "神奈川県横浜市磯子区東町１１−１０", "自治体": "横浜市", "fX": 139.63707, "fY": 35.41763 }, "geometry": { "type": "Point", "coordinates": [ 139.63707, 35.41763 ] } },
{ "type": "Feature", "properties": { "店名": "ファミリーマート磯子滝頭三丁目店", "住所": "神奈川県横浜市磯子区滝頭三丁目１番４２号", "自治体": "横浜市", "fX": 139.62439, "fY": 35.42083 }, "geometry": { "type": "Point", "coordinates": [ 139.62439, 35.42083 ] } },
{ "type": "Feature", "properties": { "店名": "ファミリーマート横浜沢渡店", "住所": "神奈川県横浜市神奈川区沢渡２番地２", "自治体": "横浜市", "fX": 139.61861, "fY": 35.47106 }, "geometry": { "type": "Point", "coordinates": [ 139.61861, 35.47106 ] } },
{ "type": "Feature", "properties": { "店名": "ファミリーマート白楽駅前店", "住所": "神奈川県横浜市神奈川区白楽１００", "自治体": "横浜市", "fX": 139.62854, "fY": 35.48817 }, "geometry": { "type": "Point", "coordinates": [ 139.62854, 35.48817 ] } },
{ "type": "Feature", "properties": { "店名": "ファミリーマート横浜西寺尾一丁目店", "住所": "神奈川県横浜市神奈川区西寺尾一丁目１８−２", "自治体": "横浜市", "fX": 139.64381, "fY": 35.50196 }, "geometry": { "type": "Point", "coordinates": [ 139.64381, 35.50196 ] } },
{ "type": "Feature", "properties": { "店名": "ファミリーマート西寺尾二丁目店", "住所": "神奈川県横浜市神奈川区西寺尾２−３１−１７", "自治体": "横浜市", "fX": 139.64943, "fY": 35.49879 }, "geometry": { "type": "Point", "coordinates": [ 139.64943, 35.49879 ] } },
{ "type": "Feature", "properties": { "店名": "ファミリーマート横浜青木町店", "住所": "神奈川県横浜市神奈川区青木町１０−２オリマツビル", "自治体": "横浜市", "fX": 139.63165, "fY": 35.4721 }, "geometry": { "type": "Point", "coordinates": [ 139.63165, 35.4721 ] } },
{ "type": "Feature", "properties": { "店名": "ファミリーマート鶴屋町店", "住所": "神奈川県横浜市神奈川区鶴屋町１−２−４", "自治体": "横浜市", "fX": 139.62415, "fY": 35.46969 }, "geometry": { "type": "Point", "coordinates": [ 139.62415, 35.46969 ] } },
{ "type": "Feature", "properties": { "店名": "ファミリーマート中山駅北店", "住所": "神奈川県横浜市緑区中山一丁目５番３号", "自治体": "横浜市", "fX": 139.54158, "fY": 35.51462 }, "geometry": { "type": "Point", "coordinates": [ 139.54158, 35.51462 ] } },
{ "type": "Feature", "properties": { "店名": "ファミリーマート竹山団地店", "住所": "神奈川県横浜市緑区竹山１−１９−２", "自治体": "横浜市", "fX": 139.56032, "fY": 35.5005 }, "geometry": { "type": "Point", "coordinates": [ 139.56032, 35.5005 ] } },
{ "type": "Feature", "properties": { "店名": "ファミリーマート西八朔町店", "住所": "神奈川県横浜市緑区西八朔町１２０１−１", "自治体": "横浜市", "fX": 139.52829, "fY": 35.53262 }, "geometry": { "type": "Point", "coordinates": [ 139.52829, 35.53262 ] } },
{ "type": "Feature", "properties": { "店名": "ファミリーマート横浜鴨居駅前店", "住所": "神奈川県横浜市緑区鴨居一丁目１５番７号", "自治体": "横浜市", "fX": 139.56644, "fY": 35.51159 }, "geometry": { "type": "Point", "coordinates": [ 139.56644, 35.51159 ] } },
{ "type": "Feature", "properties": { "店名": "ファミリーマートクイーンズスクエア横浜店", "住所": "神奈川県横浜市西区みなとみらい２−３−８", "自治体": "横浜市", "fX": 139.63402, "fY": 35.45666 }, "geometry": { "type": "Point", "coordinates": [ 139.63402, 35.45666 ] } },
{ "type": "Feature", "properties": { "店名": "ファミリーマート横浜駅西口店", "住所": "神奈川県横浜市西区北幸二丁目２番地６", "自治体": "横浜市", "fX": 139.6172, "fY": 35.46593 }, "geometry": { "type": "Point", "coordinates": [ 139.6172, 35.46593 ] } },
{ "type": "Feature", "properties": { "店名": "ファミリーマート横浜浅間町店", "住所": "神奈川県横浜市西区浅間町３−１７４−２", "自治体": "横浜市", "fX": 139.60959, "fY": 35.46199 }, "geometry": { "type": "Point", "coordinates": [ 139.60959, 35.46199 ] } },
{ "type": "Feature", "properties": { "店名": "ファミリーマートｔｖｋｅｃｏｍｐａｒｋ店", "住所": "神奈川県横浜市西区西平沼町６番１号", "自治体": "横浜市", "fX": 139.6115, "fY": 35.45654 }, "geometry": { "type": "Point", "coordinates": [ 139.6115, 35.45654 ] } },
{ "type": "Feature", "properties": { "店名": "ファミリーマートセンター北店", "住所": "神奈川県横浜市都筑区中川中央１丁目１番１号", "自治体": "横浜市", "fX": 139.57835, "fY": 35.55347 }, "geometry": { "type": "Point", "coordinates": [ 139.57835, 35.55347 ] } },
{ "type": "Feature", "properties": { "店名": "ファミリーマート都筑北山田店", "住所": "神奈川県横浜市都筑区北山田２−１−１", "自治体": "横浜市", "fX": 139.59215, "fY": 35.56079 }, "geometry": { "type": "Point", "coordinates": [ 139.59215, 35.56079 ] } },
{ "type": "Feature", "properties": { "店名": "ファミリーマート南山田三丁目店", "住所": "神奈川県横浜市都筑区南山田３−７−１", "自治体": "横浜市", "fX": 139.60022, "fY": 35.55704 }, "geometry": { "type": "Point", "coordinates": [ 139.60022, 35.55704 ] } },
{ "type": "Feature", "properties": { "店名": "ファミリーマート新栄町店", "住所": "神奈川県横浜市都筑区新栄町１３", "自治体": "横浜市", "fX": 139.59642, "fY": 35.54017 }, "geometry": { "type": "Point", "coordinates": [ 139.59642, 35.54017 ] } },
{ "type": "Feature", "properties": { "店名": "ファミリーマート松山金沢文庫店", "住所": "神奈川県横浜市金沢区寺前１丁目３番８号", "自治体": "横浜市", "fX": 139.62437, "fY": 35.34083 }, "geometry": { "type": "Point", "coordinates": [ 139.62437, 35.34083 ] } },
{ "type": "Feature", "properties": { "店名": "ファミリーマート幸浦二丁目店", "住所": "神奈川県横浜市金沢区幸浦２−１−２０", "自治体": "横浜市", "fX": 139.64508, "fY": 35.36285 }, "geometry": { "type": "Point", "coordinates": [ 139.64508, 35.36285 ] } },
{ "type": "Feature", "properties": { "店名": "ファミリーマート油屋横浜八景島店", "住所": "神奈川県横浜市金沢区柴町３４５−５", "自治体": "横浜市", "fX": 139.63817, "fY": 35.3446 }, "geometry": { "type": "Point", "coordinates": [ 139.63817, 35.3446 ] } },
{ "type": "Feature", "properties": { "店名": "ファミリーマート松山釜利谷店", "住所": "神奈川県横浜市金沢区釜利谷東２−５−１５", "自治体": "横浜市", "fX": 139.61563, "fY": 35.34376 }, "geometry": { "type": "Point", "coordinates": [ 139.61563, 35.34376 ] } },
{ "type": "Feature", "properties": { "店名": "ファミリーマートたまプラーザ店", "住所": "神奈川県横浜市青葉区美しが丘２−１４−３", "自治体": "横浜市", "fX": 139.56009, "fY": 35.57925 }, "geometry": { "type": "Point", "coordinates": [ 139.56009, 35.57925 ] } },
{ "type": "Feature", "properties": { "店名": "ファミリーマート藤が丘駅東店", "住所": "神奈川県横浜市青葉区藤が丘１丁目２９−２", "自治体": "横浜市", "fX": 139.52859, "fY": 35.54427 }, "geometry": { "type": "Point", "coordinates": [ 139.52859, 35.54427 ] } },
{ "type": "Feature", "properties": { "店名": "ファミリーマート鶴見旭台店", "住所": "神奈川県横浜市鶴見区下末吉１丁目２１番７号", "自治体": "横浜市", "fX": 139.66902, "fY": 35.51819 }, "geometry": { "type": "Point", "coordinates": [ 139.66902, 35.51819 ] } },
{ "type": "Feature", "properties": { "店名": "ファミリーマート横浜鶴見元宮店", "住所": "神奈川県横浜市鶴見区元宮２丁目１番７０号", "自治体": "横浜市", "fX": 139.67787, "fY": 35.52248 }, "geometry": { "type": "Point", "coordinates": [ 139.67787, 35.52248 ] } },
{ "type": "Feature", "properties": { "店名": "ファミリーマート岸谷店", "住所": "神奈川県横浜市鶴見区岸谷１−２６−９", "自治体": "横浜市", "fX": 139.66597, "fY": 35.49681 }, "geometry": { "type": "Point", "coordinates": [ 139.66597, 35.49681 ] } },
{ "type": "Feature", "properties": { "店名": "ファミリーマート東寺尾中台店", "住所": "神奈川県横浜市鶴見区東寺尾中台１３−１７", "自治体": "横浜市", "fX": 139.66397, "fY": 35.51024 }, "geometry": { "type": "Point", "coordinates": [ 139.66397, 35.51024 ] } },
{ "type": "Feature", "properties": { "店名": "ファミリーマート鶴見西口店", "住所": "神奈川県横浜市鶴見区豊岡町８−２０", "自治体": "横浜市", "fX": 139.67433, "fY": 35.50843 }, "geometry": { "type": "Point", "coordinates": [ 139.67433, 35.50843 ] } },
{ "type": "Feature", "properties": { "店名": "ファミリーマート横浜駒岡三丁目店", "住所": "神奈川県横浜市鶴見区駒岡三丁目１８−１０", "自治体": "横浜市", "fX": 139.653, "fY": 35.5293 }, "geometry": { "type": "Point", "coordinates": [ 139.653, 35.5293 ] } },
{ "type": "Feature", "properties": { "店名": "ファミリーマート京急鶴見駅前店", "住所": "神奈川県横浜市鶴見区鶴見中央４丁目２３−９藤ビル１階", "自治体": "横浜市", "fX": 139.67847, "fY": 35.50714 }, "geometry": { "type": "Point", "coordinates": [ 139.67847, 35.50714 ] } },
{ "type": "Feature", "properties": { "店名": "ファミリーマート武蔵中原駅前店", "住所": "神奈川県川崎市中原区下小田中２−３−１", "自治体": "川崎市", "fX": 139.64151, "fY": 35.57972 }, "geometry": { "type": "Point", "coordinates": [ 139.64151, 35.57972 ] } },
{ "type": "Feature", "properties": { "店名": "ファミリーマート川崎中丸子店", "住所": "神奈川県川崎市中原区中丸子５４９番１", "自治体": "川崎市", "fX": 139.67062, "fY": 35.5657 }, "geometry": { "type": "Point", "coordinates": [ 139.67062, 35.5657 ] } },
{ "type": "Feature", "properties": { "店名": "ファミリーマート小杉法政通り店", "住所": "神奈川県川崎市中原区市ノ坪２６", "自治体": "川崎市", "fX": 139.65785, "fY": 35.57333 }, "geometry": { "type": "Point", "coordinates": [ 139.65785, 35.57333 ] } },
{ "type": "Feature", "properties": { "店名": "ファミリーマート新丸子駅西口店", "住所": "神奈川県川崎市中原区新丸子町７３７−１", "自治体": "川崎市", "fX": 139.66174, "fY": 35.58089 }, "geometry": { "type": "Point", "coordinates": [ 139.66174, 35.58089 ] } },
{ "type": "Feature", "properties": { "店名": "ファミリーマート川崎元住吉店", "住所": "神奈川県川崎市中原区木月１丁目３２番１青木ビル１階", "自治体": "川崎市", "fX": 139.65257, "fY": 35.565 }, "geometry": { "type": "Point", "coordinates": [ 139.65257, 35.565 ] } },
{ "type": "Feature", "properties": { "店名": "ファミリーマート木月三丁目店", "住所": "神奈川県川崎市中原区木月３丁目１７−１５クリフトンコート", "自治体": "川崎市", "fX": 139.65071, "fY": 35.56521 }, "geometry": { "type": "Point", "coordinates": [ 139.65071, 35.56521 ] } },
{ "type": "Feature", "properties": { "店名": "ファミリーマート平間駅前店", "住所": "神奈川県川崎市中原区田尻町２０−１", "自治体": "川崎市", "fX": 139.67159, "fY": 35.56067 }, "geometry": { "type": "Point", "coordinates": [ 139.67159, 35.56067 ] } },
{ "type": "Feature", "properties": { "店名": "ファミリーマート生田駅東店", "住所": "神奈川県川崎市多摩区生田７−３−１", "自治体": "川崎市", "fX": 139.54283, "fY": 35.61494 }, "geometry": { "type": "Point", "coordinates": [ 139.54283, 35.61494 ] } },
{ "type": "Feature", "properties": { "店名": "ファミリーマート登戸新町店", "住所": "神奈川県川崎市多摩区登戸新町３７５番地", "自治体": "川崎市", "fX": 139.56516, "fY": 35.6222 }, "geometry": { "type": "Point", "coordinates": [ 139.56516, 35.6222 ] } },
{ "type": "Feature", "properties": { "店名": "ファミリーマート登戸駅前店", "住所": "神奈川県川崎市多摩区登戸３４６５いろはビル１階", "自治体": "川崎市", "fX": 139.57018, "fY": 35.62019 }, "geometry": { "type": "Point", "coordinates": [ 139.57018, 35.62019 ] } },
{ "type": "Feature", "properties": { "店名": "ファミリーマート稲田堤駅前店", "住所": "神奈川県川崎市多摩区菅稲田堤１−３", "自治体": "川崎市", "fX": 139.53578, "fY": 35.6342 }, "geometry": { "type": "Point", "coordinates": [ 139.53578, 35.6342 ] } },
{ "type": "Feature", "properties": { "店名": "ファミリーマート川崎宮前南平台店", "住所": "神奈川県川崎市宮前区南平台１８−１３", "自治体": "川崎市", "fX": 139.57065, "fY": 35.59491 }, "geometry": { "type": "Point", "coordinates": [ 139.57065, 35.59491 ] } },
{ "type": "Feature", "properties": { "店名": "ファミリーマート宮前小台一丁目店", "住所": "神奈川県川崎市宮前区小台１−１５−６", "自治体": "川崎市", "fX": 139.57663, "fY": 35.57961 }, "geometry": { "type": "Point", "coordinates": [ 139.57663, 35.57961 ] } },
{ "type": "Feature", "properties": { "店名": "ファミリーマート有馬二丁目店", "住所": "神奈川県川崎市宮前区有馬２丁目８‐８", "自治体": "川崎市", "fX": 139.58487, "fY": 35.57908 }, "geometry": { "type": "Point", "coordinates": [ 139.58487, 35.57908 ] } },
{ "type": "Feature", "properties": { "店名": "ファミリーマート水沢三丁目店", "住所": "神奈川県川崎市宮前区水沢三丁目１２−２", "自治体": "川崎市", "fX": 139.54082, "fY": 35.59396 }, "geometry": { "type": "Point", "coordinates": [ 139.54082, 35.59396 ] } },
{ "type": "Feature", "properties": { "店名": "ファミリーマート大島三丁目店", "住所": "神奈川県川崎市川崎区大島３丁目１７−１２", "自治体": "川崎市", "fX": 139.71802, "fY": 35.51871 }, "geometry": { "type": "Point", "coordinates": [ 139.71802, 35.51871 ] } },
{ "type": "Feature", "properties": { "店名": "ファミリーマート川崎大師駅前二丁目店", "住所": "神奈川県川崎市川崎区大師駅前二丁目１１番１３", "自治体": "川崎市", "fX": 139.72433, "fY": 35.53324 }, "geometry": { "type": "Point", "coordinates": [ 139.72433, 35.53324 ] } },
{ "type": "Feature", "properties": { "店名": "ファミリーマートなわてや八丁畷店", "住所": "神奈川県川崎市川崎区池田１−１５−５−１０１", "自治体": "川崎市", "fX": 139.69229, "fY": 35.52311 }, "geometry": { "type": "Point", "coordinates": [ 139.69229, 35.52311 ] } },
{ "type": "Feature", "properties": { "店名": "ファミリーマート川崎田町店", "住所": "神奈川県川崎市川崎区田町一丁目３−１２", "自治体": "川崎市", "fX": 139.74173, "fY": 35.53516 }, "geometry": { "type": "Point", "coordinates": [ 139.74173, 35.53516 ] } },
{ "type": "Feature", "properties": { "店名": "ファミリーマートアスロード川崎ロイネット店", "住所": "神奈川県川崎市川崎区砂子２丁目６−１５", "自治体": "川崎市", "fX": 139.70001, "fY": 35.52872 }, "geometry": { "type": "Point", "coordinates": [ 139.70001, 35.52872 ] } },
{ "type": "Feature", "properties": { "店名": "ファミリーマート観音二丁目店", "住所": "神奈川県川崎市川崎区観音２丁目１番１４号", "自治体": "川崎市", "fX": 139.72845, "fY": 35.52584 }, "geometry": { "type": "Point", "coordinates": [ 139.72845, 35.52584 ] } },
{ "type": "Feature", "properties": { "店名": "ファミリーマート川崎貝塚一丁目店", "住所": "神奈川県川崎市川崎区貝塚１丁目１番１号", "自治体": "川崎市", "fX": 139.70277, "fY": 35.52623 }, "geometry": { "type": "Point", "coordinates": [ 139.70277, 35.52623 ] } },
{ "type": "Feature", "properties": { "店名": "ファミリーマート中幸町三丁目店", "住所": "神奈川県川崎市幸区中幸町３丁目３番２", "自治体": "川崎市", "fX": 139.69469, "fY": 35.53507 }, "geometry": { "type": "Point", "coordinates": [ 139.69469, 35.53507 ] } },
{ "type": "Feature", "properties": { "店名": "ファミリーマート川崎駅西店", "住所": "神奈川県川崎市幸区中幸町４−５０−５", "自治体": "川崎市", "fX": 139.69283, "fY": 35.53195 }, "geometry": { "type": "Point", "coordinates": [ 139.69283, 35.53195 ] } },
{ "type": "Feature", "properties": { "店名": "ファミリーマート川崎南幸町店", "住所": "神奈川県川崎市幸区南幸町一丁目７番地５", "自治体": "川崎市", "fX": 139.69154, "fY": 35.53537 }, "geometry": { "type": "Point", "coordinates": [ 139.69154, 35.53537 ] } },
{ "type": "Feature", "properties": { "店名": "ファミリーマート矢向駅西店", "住所": "神奈川県川崎市幸区塚越３丁目４０３番６", "自治体": "川崎市", "fX": 139.67862, "fY": 35.54216 }, "geometry": { "type": "Point", "coordinates": [ 139.67862, 35.54216 ] } },
{ "type": "Feature", "properties": { "店名": "ファミリーマート小向西町一丁目店", "住所": "神奈川県川崎市幸区小向西町１丁目１０番地", "自治体": "川崎市", "fX": 139.69135, "fY": 35.54856 }, "geometry": { "type": "Point", "coordinates": [ 139.69135, 35.54856 ] } },
{ "type": "Feature", "properties": { "店名": "ファミリーマートパークタワー新川崎店", "住所": "神奈川県川崎市幸区鹿島田１−１−５−３０２", "自治体": "川崎市", "fX": 139.67383, "fY": 35.55024 }, "geometry": { "type": "Point", "coordinates": [ 139.67383, 35.55024 ] } },
{ "type": "Feature", "properties": { "店名": "ファミリーマート上作延店", "住所": "神奈川県川崎市高津区上作延２丁目１番２４号", "自治体": "川崎市", "fX": 139.59245, "fY": 35.60038 }, "geometry": { "type": "Point", "coordinates": [ 139.59245, 35.60038 ] } },
{ "type": "Feature", "properties": { "店名": "ファミリーマート二子大通り店", "住所": "神奈川県川崎市高津区二子２−４−１１", "自治体": "川崎市", "fX": 139.62173, "fY": 35.60744 }, "geometry": { "type": "Point", "coordinates": [ 139.62173, 35.60744 ] } },
{ "type": "Feature", "properties": { "店名": "ファミリーマート川崎高津千年店", "住所": "神奈川県川崎市高津区千年４０", "自治体": "川崎市", "fX": 139.62318, "fY": 35.57254 }, "geometry": { "type": "Point", "coordinates": [ 139.62318, 35.57254 ] } },
{ "type": "Feature", "properties": { "店名": "ファミリーマート川崎新作五丁目店", "住所": "神奈川県川崎市高津区新作５丁目４番７号", "自治体": "川崎市", "fX": 139.62231, "fY": 35.58688 }, "geometry": { "type": "Point", "coordinates": [ 139.62231, 35.58688 ] } },
{ "type": "Feature", "properties": { "店名": "ファミリーマート川崎第三京浜入口店", "住所": "神奈川県川崎市高津区末長４丁目９番１１号", "自治体": "川崎市", "fX": 139.62305, "fY": 35.59046 }, "geometry": { "type": "Point", "coordinates": [ 139.62305, 35.59046 ] } },
{ "type": "Feature", "properties": { "店名": "ファミリーマート山中屋高津駅前店", "住所": "神奈川県川崎市高津区溝口４−５−５", "自治体": "川崎市", "fX": 139.61603, "fY": 35.60366 }, "geometry": { "type": "Point", "coordinates": [ 139.61603, 35.60366 ] } },
{ "type": "Feature", "properties": { "店名": "ファミリーマート新百合ケ丘駅前店", "住所": "神奈川県川崎市麻生区万福寺１−１６−７", "自治体": "川崎市", "fX": 139.50755, "fY": 35.60492 }, "geometry": { "type": "Point", "coordinates": [ 139.50755, 35.60492 ] } },
{ "type": "Feature", "properties": { "店名": "ファミリーマート百合ヶ丘駅南口店", "住所": "神奈川県川崎市麻生区百合丘１−１−２８", "自治体": "川崎市", "fX": 139.51663, "fY": 35.60861 }, "geometry": { "type": "Point", "coordinates": [ 139.51663, 35.60861 ] } },
{ "type": "Feature", "properties": { "店名": "ファミリーマート横須賀三春町店", "住所": "神奈川県横須賀市三春町１−２１", "自治体": "横須賀市", "fX": 139.68228, "fY": 35.26861 }, "geometry": { "type": "Point", "coordinates": [ 139.68228, 35.26861 ] } },
{ "type": "Feature", "properties": { "店名": "ファミリーマート京急久里浜駅前店", "住所": "神奈川県横須賀市久里浜１−５−８ＳＴビル", "自治体": "横須賀市", "fX": 139.70155, "fY": 35.23098 }, "geometry": { "type": "Point", "coordinates": [ 139.70155, 35.23098 ] } },
{ "type": "Feature", "properties": { "店名": "ファミリーマート松山公郷店", "住所": "神奈川県横須賀市公郷町２丁目２２番", "自治体": "横須賀市", "fX": 139.66725, "fY": 35.25628 }, "geometry": { "type": "Point", "coordinates": [ 139.66725, 35.25628 ] } },
{ "type": "Feature", "properties": { "店名": "ファミリーマートたかはし吉井店", "住所": "神奈川県横須賀市吉井３−１３−９", "自治体": "横須賀市", "fX": 139.69962, "fY": 35.25134 }, "geometry": { "type": "Point", "coordinates": [ 139.69962, 35.25134 ] } },
{ "type": "Feature", "properties": { "店名": "ファミリーマート横須賀大津町店", "住所": "神奈川県横須賀市大津町２丁目３番７号", "自治体": "横須賀市", "fX": 139.69859, "fY": 35.26154 }, "geometry": { "type": "Point", "coordinates": [ 139.69859, 35.26154 ] } },
{ "type": "Feature", "properties": { "店名": "ファミリーマート横須賀中央店", "住所": "神奈川県横須賀市大滝町２−１２", "自治体": "横須賀市", "fX": 139.67064, "fY": 35.28091 }, "geometry": { "type": "Point", "coordinates": [ 139.67064, 35.28091 ] } },
{ "type": "Feature", "properties": { "店名": "ファミリーマート武山駐屯地南店", "住所": "神奈川県横須賀市御幸浜１−１", "自治体": "横須賀市", "fX": 139.6311, "fY": 35.21807 }, "geometry": { "type": "Point", "coordinates": [ 139.6311, 35.21807 ] } },
{ "type": "Feature", "properties": { "店名": "ファミリーマート横須賀根岸町店", "住所": "神奈川県横須賀市根岸町３−２−８", "自治体": "横須賀市", "fX": 139.685, "fY": 35.25135 }, "geometry": { "type": "Point", "coordinates": [ 139.685, 35.25135 ] } },
{ "type": "Feature", "properties": { "店名": "ファミリーマート松山横須賀インター店", "住所": "神奈川県横須賀市池上６丁目３−１", "自治体": "横須賀市", "fX": 139.64113, "fY": 35.26588 }, "geometry": { "type": "Point", "coordinates": [ 139.64113, 35.26588 ] } },
{ "type": "Feature", "properties": { "店名": "ファミリーマート湘南港が丘店", "住所": "神奈川県横須賀市港が丘１−１", "自治体": "横須賀市", "fX": 139.63069, "fY": 35.29562 }, "geometry": { "type": "Point", "coordinates": [ 139.63069, 35.29562 ] } },
{ "type": "Feature", "properties": { "店名": "ファミリーマート横須賀市立総合医療センター店", "住所": "神奈川県横須賀市神明町１番８", "自治体": "横須賀市", "fX": 139.70073, "fY": 35.22433 }, "geometry": { "type": "Point", "coordinates": [ 139.70073, 35.22433 ] } },
{ "type": "Feature", "properties": { "店名": "ファミリーマート横須賀米が浜店", "住所": "神奈川県横須賀市米が浜通２−１−４", "自治体": "横須賀市", "fX": 139.67603, "fY": 35.27697 }, "geometry": { "type": "Point", "coordinates": [ 139.67603, 35.27697 ] } },
{ "type": "Feature", "properties": { "店名": "ファミリーマート松山横須賀あわた店", "住所": "神奈川県横須賀市粟田２丁目４−９", "自治体": "横須賀市", "fX": 139.68413, "fY": 35.22546 }, "geometry": { "type": "Point", "coordinates": [ 139.68413, 35.22546 ] } },
{ "type": "Feature", "properties": { "店名": "ファミリーマート横須賀船越七丁目店", "住所": "神奈川県横須賀市船越町７−１６", "自治体": "横須賀市", "fX": 139.63046, "fY": 35.30382 }, "geometry": { "type": "Point", "coordinates": [ 139.63046, 35.30382 ] } },
{ "type": "Feature", "properties": { "店名": "ファミリーマート横須賀長井一丁目店", "住所": "神奈川県横須賀市長井１−１４−１６", "自治体": "横須賀市", "fX": 139.62268, "fY": 35.19876 }, "geometry": { "type": "Point", "coordinates": [ 139.62268, 35.19876 ] } },
{ "type": "Feature", "properties": { "店名": "ファミリーマート横須賀須軽谷店", "住所": "神奈川県横須賀市須軽谷３０７−１１", "自治体": "横須賀市", "fX": 139.64499, "fY": 35.20702 }, "geometry": { "type": "Point", "coordinates": [ 139.64499, 35.20702 ] } },
{ "type": "Feature", "properties": { "店名": "ファミリーマート小田原国府津店", "住所": "神奈川県小田原市国府津２４９４番地の１", "自治体": "小田原市", "fX": 139.20384, "fY": 35.28092 }, "geometry": { "type": "Point", "coordinates": [ 139.20384, 35.28092 ] } },
{ "type": "Feature", "properties": { "店名": "ファミリーマート小田原新屋店", "住所": "神奈川県小田原市新屋４５−２", "自治体": "小田原市", "fX": 139.1394, "fY": 35.2946 }, "geometry": { "type": "Point", "coordinates": [ 139.1394, 35.2946 ] } },
{ "type": "Feature", "properties": { "店名": "ファミリーマート小田原駅東口店", "住所": "神奈川県小田原市栄町１丁目２−１", "自治体": "小田原市", "fX": 139.15674, "fY": 35.25516 }, "geometry": { "type": "Point", "coordinates": [ 139.15674, 35.25516 ] } },
{ "type": "Feature", "properties": { "店名": "ファミリーマート小田原荻窪店", "住所": "神奈川県小田原市荻窪４７３", "自治体": "小田原市", "fX": 139.14928, "fY": 35.26276 }, "geometry": { "type": "Point", "coordinates": [ 139.14928, 35.26276 ] } },
{ "type": "Feature", "properties": { "店名": "ファミリーマート中井ＰＡ上り店", "住所": "神奈川県足柄上郡中井町松本９２６−２中井パーキングエリア", "自治体": "足柄上郡中井町", "fX": 139.19933, "fY": 35.34297 }, "geometry": { "type": "Point", "coordinates": [ 139.19933, 35.34297 ] } },
{ "type": "Feature", "properties": { "店名": "ファミリーマート大井町上大井店", "住所": "神奈川県足柄上郡大井町上大井６６−１", "自治体": "足柄上郡大井町", "fX": 139.15829, "fY": 35.32323 }, "geometry": { "type": "Point", "coordinates": [ 139.15829, 35.32323 ] } },
{ "type": "Feature", "properties": { "店名": "ファミリーマート山北町店", "住所": "神奈川県足柄上郡山北町山北７４１番地１", "自治体": "足柄上郡山北町", "fX": 139.08105, "fY": 35.36124 }, "geometry": { "type": "Point", "coordinates": [ 139.08105, 35.36124 ] } },
{ "type": "Feature", "properties": { "店名": "ファミリーマート開成延沢店", "住所": "神奈川県足柄上郡開成町延沢６１５−１", "自治体": "足柄上郡開成町", "fX": 139.1212, "fY": 35.3345 }, "geometry": { "type": "Point", "coordinates": [ 139.1212, 35.3345 ] } },
{ "type": "Feature", "properties": { "店名": "ファミリーマート善行駅東口店", "住所": "神奈川県藤沢市善行７−４−１", "自治体": "藤沢市", "fX": 139.47415, "fY": 35.36325 }, "geometry": { "type": "Point", "coordinates": [ 139.47415, 35.36325 ] } },
{ "type": "Feature", "properties": { "店名": "ファミリーマート藤沢舟地蔵店", "住所": "神奈川県藤沢市大庭５１３８−３", "自治体": "藤沢市", "fX": 139.45085, "fY": 35.35836 }, "geometry": { "type": "Point", "coordinates": [ 139.45085, 35.35836 ] } },
{ "type": "Feature", "properties": { "店名": "ファミリーマート藤沢大庭店", "住所": "神奈川県藤沢市大庭５４２５−１５", "自治体": "藤沢市", "fX": 139.4536, "fY": 35.36426 }, "geometry": { "type": "Point", "coordinates": [ 139.4536, 35.36426 ] } },
{ "type": "Feature", "properties": { "店名": "ファミリーマート藤沢柄沢店", "住所": "神奈川県藤沢市柄沢二丁目７番地２７", "自治体": "藤沢市", "fX": 139.50111, "fY": 35.35349 }, "geometry": { "type": "Point", "coordinates": [ 139.50111, 35.35349 ] } },
{ "type": "Feature", "properties": { "店名": "ファミリーマートサンズ湘南台一丁目店", "住所": "神奈川県藤沢市湘南台１−１２−１", "自治体": "藤沢市", "fX": 139.4678, "fY": 35.39612 }, "geometry": { "type": "Point", "coordinates": [ 139.4678, 35.39612 ] } },
{ "type": "Feature", "properties": { "店名": "ファミリーマート藤沢石川店", "住所": "神奈川県藤沢市石川６３６−９他６筆", "自治体": "藤沢市", "fX": 139.4519, "fY": 35.3708 }, "geometry": { "type": "Point", "coordinates": [ 139.4519, 35.3708 ] } },
{ "type": "Feature", "properties": { "店名": "ファミリーマート藤沢羽鳥店", "住所": "神奈川県藤沢市羽鳥１‐３‐５０", "自治体": "藤沢市", "fX": 139.44948, "fY": 35.34277 }, "geometry": { "type": "Point", "coordinates": [ 139.44948, 35.34277 ] } },
{ "type": "Feature", "properties": { "店名": "ファミリーマート藤沢藤が岡店", "住所": "神奈川県藤沢市藤が岡１−１１−４", "自治体": "藤沢市", "fX": 139.4921, "fY": 35.34479 }, "geometry": { "type": "Point", "coordinates": [ 139.4921, 35.34479 ] } },
{ "type": "Feature", "properties": { "店名": "ファミリーマート藤沢駅北口店", "住所": "神奈川県藤沢市藤沢４８４−１安田生命藤沢ビル", "自治体": "藤沢市", "fX": 139.48528, "fY": 35.33979 }, "geometry": { "type": "Point", "coordinates": [ 139.48528, 35.33979 ] } },
{ "type": "Feature", "properties": { "店名": "ファミリーマート上溝七曲り店", "住所": "神奈川県相模原市中央区上溝１２４９−６", "自治体": "相模原市", "fX": 139.37073, "fY": 35.54641 }, "geometry": { "type": "Point", "coordinates": [ 139.37073, 35.54641 ] } },
{ "type": "Feature", "properties": { "店名": "ファミリーマート相模原中央五丁目店", "住所": "神奈川県相模原市中央区中央５−８−３", "自治体": "相模原市", "fX": 139.36705, "fY": 35.57095 }, "geometry": { "type": "Point", "coordinates": [ 139.36705, 35.57095 ] } },
{ "type": "Feature", "properties": { "店名": "ファミリーマート相模原淵野辺三丁目店", "住所": "神奈川県相模原市中央区淵野辺３丁目１０−１８", "自治体": "相模原市", "fX": 139.39342, "fY": 35.57177 }, "geometry": { "type": "Point", "coordinates": [ 139.39342, 35.57177 ] } },
{ "type": "Feature", "properties": { "店名": "ファミリーマート淵野辺駅南口店", "住所": "神奈川県相模原市中央区淵野辺４丁目１６番３０号", "自治体": "相模原市", "fX": 139.39606, "fY": 35.56808 }, "geometry": { "type": "Point", "coordinates": [ 139.39606, 35.56808 ] } },
{ "type": "Feature", "properties": { "店名": "ファミリーマート清新六丁目店", "住所": "神奈川県相模原市中央区清新６−１８−１５", "自治体": "相模原市", "fX": 139.35504, "fY": 35.57685 }, "geometry": { "type": "Point", "coordinates": [ 139.35504, 35.57685 ] } },
{ "type": "Feature", "properties": { "店名": "ファミリーマート田名四ツ谷店", "住所": "神奈川県相模原市中央区田名４５５９番１", "自治体": "相模原市", "fX": 139.33838, "fY": 35.55646 }, "geometry": { "type": "Point", "coordinates": [ 139.33838, 35.55646 ] } },
{ "type": "Feature", "properties": { "店名": "ファミリーマート北里大学病院店", "住所": "神奈川県相模原市南区北里１−１５−１", "自治体": "相模原市", "fX": 139.39384, "fY": 35.53851 }, "geometry": { "type": "Point", "coordinates": [ 139.39384, 35.53851 ] } },
{ "type": "Feature", "properties": { "店名": "ファミリーマートサンズ相模台五丁目店", "住所": "神奈川県相模原市南区相模台５−１１−７", "自治体": "相模原市", "fX": 139.41051, "fY": 35.51652 }, "geometry": { "type": "Point", "coordinates": [ 139.41051, 35.51652 ] } },
{ "type": "Feature", "properties": { "店名": "ファミリーマート相模大野南口店", "住所": "神奈川県相模原市南区相模大野八丁目２番６号", "自治体": "相模原市", "fX": 139.43776, "fY": 35.5309 }, "geometry": { "type": "Point", "coordinates": [ 139.43776, 35.5309 ] } },
{ "type": "Feature", "properties": { "店名": "ファミリーマートよろづや相模大野北口店", "住所": "神奈川県相模原市南区相模大野３−９−１", "自治体": "相模原市", "fX": 139.43733, "fY": 35.53253 }, "geometry": { "type": "Point", "coordinates": [ 139.43733, 35.53253 ] } },
{ "type": "Feature", "properties": { "店名": "ファミリーマート相模大野銀座通り店", "住所": "神奈川県相模原市南区相模大野６丁目１９−１７", "自治体": "相模原市", "fX": 139.43433, "fY": 35.52967 }, "geometry": { "type": "Point", "coordinates": [ 139.43433, 35.52967 ] } },
{ "type": "Feature", "properties": { "店名": "ファミリーマート相武台三丁目店", "住所": "神奈川県相模原市南区相武台３丁目２１−３９", "自治体": "相模原市", "fX": 139.40701, "fY": 35.50504 }, "geometry": { "type": "Point", "coordinates": [ 139.40701, 35.50504 ] } },
{ "type": "Feature", "properties": { "店名": "ファミリーマート相模原鵜野森店", "住所": "神奈川県相模原市南区鵜野森３丁目７−１３", "自治体": "相模原市", "fX": 139.43364, "fY": 35.53938 }, "geometry": { "type": "Point", "coordinates": [ 139.43364, 35.53938 ] } },
{ "type": "Feature", "properties": { "店名": "ファミリーマート八洋相模原麻溝台四丁目店", "住所": "神奈川県相模原市南区麻溝台四丁目７−３８", "自治体": "相模原市", "fX": 139.40608, "fY": 35.53271 }, "geometry": { "type": "Point", "coordinates": [ 139.40608, 35.53271 ] } },
{ "type": "Feature", "properties": { "店名": "ファミリーマート津久井三ヶ木店", "住所": "神奈川県相模原市緑区三ヶ木１５９３番地１", "自治体": "相模原市", "fX": 139.22807, "fY": 35.59074 }, "geometry": { "type": "Point", "coordinates": [ 139.22807, 35.59074 ] } },
{ "type": "Feature", "properties": { "店名": "ファミリーマート相模原下九沢店", "住所": "神奈川県相模原市緑区下九沢２９１７番１", "自治体": "相模原市", "fX": 139.31895, "fY": 35.58637 }, "geometry": { "type": "Point", "coordinates": [ 139.31895, 35.58637 ] } },
{ "type": "Feature", "properties": { "店名": "ファミリーマート作の口小学校前店", "住所": "神奈川県相模原市緑区下九沢４６８番１", "自治体": "相模原市", "fX": 139.35077, "fY": 35.57039 }, "geometry": { "type": "Point", "coordinates": [ 139.35077, 35.57039 ] } },
{ "type": "Feature", "properties": { "店名": "ファミリーマート相模原原宿五丁目店", "住所": "神奈川県相模原市緑区原宿５丁目１番５号", "自治体": "相模原市", "fX": 139.30815, "fY": 35.59624 }, "geometry": { "type": "Point", "coordinates": [ 139.30815, 35.59624 ] } },
{ "type": "Feature", "properties": { "店名": "ファミリーマート津久井太井店", "住所": "神奈川県相模原市緑区太井２３０番１", "自治体": "相模原市", "fX": 139.26738, "fY": 35.58439 }, "geometry": { "type": "Point", "coordinates": [ 139.26738, 35.58439 ] } },
{ "type": "Feature", "properties": { "店名": "ファミリーマート相模原西橋本店", "住所": "神奈川県相模原市緑区西橋本一丁目１番３号", "自治体": "相模原市", "fX": 139.34096, "fY": 35.59131 }, "geometry": { "type": "Point", "coordinates": [ 139.34096, 35.59131 ] } },
{ "type": "Feature", "properties": { "店名": "ファミリーマート秦野ひらさわ店", "住所": "神奈川県秦野市平沢２９４番地の２", "自治体": "秦野市", "fX": 139.19644, "fY": 35.37607 }, "geometry": { "type": "Point", "coordinates": [ 139.19644, 35.37607 ] } },
{ "type": "Feature", "properties": { "店名": "ファミリーマート渋沢南店", "住所": "神奈川県秦野市曲松１−４−１３", "自治体": "秦野市", "fX": 139.18295, "fY": 35.37373 }, "geometry": { "type": "Point", "coordinates": [ 139.18295, 35.37373 ] } },
{ "type": "Feature", "properties": { "店名": "ファミリーマート秦野運動公園東店", "住所": "神奈川県秦野市曽屋６８７番３５", "自治体": "秦野市", "fX": 139.20332, "fY": 35.38199 }, "geometry": { "type": "Point", "coordinates": [ 139.20332, 35.38199 ] } },
{ "type": "Feature", "properties": { "店名": "ファミリーマート秦野本町店", "住所": "神奈川県秦野市本町２丁目１−１", "自治体": "秦野市", "fX": 139.22827, "fY": 35.3707 }, "geometry": { "type": "Point", "coordinates": [ 139.22827, 35.3707 ] } },
{ "type": "Feature", "properties": { "店名": "ファミリーマートサンズ上依知南店", "住所": "神奈川県厚木市上依知１２９６−１", "自治体": "厚木市", "fX": 139.35794, "fY": 35.50754 }, "geometry": { "type": "Point", "coordinates": [ 139.35794, 35.50754 ] } },
{ "type": "Feature", "properties": { "店名": "ファミリーマート厚木及川店", "住所": "神奈川県厚木市及川二丁目２３番１８", "自治体": "厚木市", "fX": 139.34703, "fY": 35.46891 }, "geometry": { "type": "Point", "coordinates": [ 139.34703, 35.46891 ] } },
{ "type": "Feature", "properties": { "店名": "ファミリーマート厚木妻田北店", "住所": "神奈川県厚木市妻田北３丁目９番２４号", "自治体": "厚木市", "fX": 139.35693, "fY": 35.46573 }, "geometry": { "type": "Point", "coordinates": [ 139.35693, 35.46573 ] } },
{ "type": "Feature", "properties": { "店名": "ファミリーマート本厚木駅南口店", "住所": "神奈川県厚木市泉町３−１４東友ビル", "自治体": "厚木市", "fX": 139.36539, "fY": 35.43929 }, "geometry": { "type": "Point", "coordinates": [ 139.36539, 35.43929 ] } },
{ "type": "Feature", "properties": { "店名": "ファミリーマートサンズ中央林間四丁目店", "住所": "神奈川県大和市中央林間４丁目２９−２０", "自治体": "大和市", "fX": 139.44847, "fY": 35.50678 }, "geometry": { "type": "Point", "coordinates": [ 139.44847, 35.50678 ] } },
{ "type": "Feature", "properties": { "店名": "ファミリーマート大和代官二丁目店", "住所": "神奈川県大和市代官２−１７−４", "自治体": "大和市", "fX": 139.45827, "fY": 35.43954 }, "geometry": { "type": "Point", "coordinates": [ 139.45827, 35.43954 ] } },
{ "type": "Feature", "properties": { "店名": "ファミリーマート南林間駅前店", "住所": "神奈川県大和市南林間１丁目７−１４", "自治体": "大和市", "fX": 139.44749, "fY": 35.49482 }, "geometry": { "type": "Point", "coordinates": [ 139.44749, 35.49482 ] } },
{ "type": "Feature", "properties": { "店名": "ファミリーマート大船一丁目店", "住所": "神奈川県鎌倉市大船１丁目２５番５号", "自治体": "鎌倉市", "fX": 139.53342, "fY": 35.35371 }, "geometry": { "type": "Point", "coordinates": [ 139.53342, 35.35371 ] } },
{ "type": "Feature", "properties": { "店名": "ファミリーマート鎌倉二の鳥居店", "住所": "神奈川県鎌倉市小町２−１５−１", "自治体": "鎌倉市", "fX": 139.5531, "fY": 35.31992 }, "geometry": { "type": "Point", "coordinates": [ 139.5531, 35.31992 ] } },
{ "type": "Feature", "properties": { "店名": "ファミリーマート鎌倉長谷店", "住所": "神奈川県鎌倉市長谷１−８−５", "自治体": "鎌倉市", "fX": 139.53918, "fY": 35.31361 }, "geometry": { "type": "Point", "coordinates": [ 139.53918, 35.31361 ] } },
{ "type": "Feature", "properties": { "店名": "ファミリーマート座間郵便局前店", "住所": "神奈川県座間市相模が丘一丁目９−２２", "自治体": "座間市", "fX": 139.41579, "fY": 35.50977 }, "geometry": { "type": "Point", "coordinates": [ 139.41579, 35.50977 ] } },
{ "type": "Feature", "properties": { "店名": "ファミリーマート座間相模が丘五丁目店", "住所": "神奈川県座間市相模が丘５丁目２９−５１", "自治体": "座間市", "fX": 139.42409, "fY": 35.51003 }, "geometry": { "type": "Point", "coordinates": [ 139.42409, 35.51003 ] } },
{ "type": "Feature", "properties": { "店名": "ファミリーマート箱根仙石湿原店", "住所": "神奈川県足柄下郡箱根町仙石原８１７−４４６", "自治体": "足柄下郡箱根町", "fX": 138.99937, "fY": 35.26557 }, "geometry": { "type": "Point", "coordinates": [ 138.99937, 35.26557 ] } },
{ "type": "Feature", "properties": { "店名": "ファミリーマート箱根湯本店", "住所": "神奈川県足柄下郡箱根町湯本３８６−３３", "自治体": "足柄下郡箱根町", "fX": 139.1055, "fY": 35.22936 }, "geometry": { "type": "Point", "coordinates": [ 139.1055, 35.22936 ] } },
{ "type": "Feature", "properties": { "店名": "ファミリーマート茅ヶ崎中島北店", "住所": "神奈川県茅ヶ崎市中島２５４番地３", "自治体": "茅ヶ崎市", "fX": 139.37585, "fY": 35.33177 }, "geometry": { "type": "Point", "coordinates": [ 139.37585, 35.33177 ] } },
{ "type": "Feature", "properties": { "店名": "ファミリーマート茅ヶ崎堤坂下店", "住所": "神奈川県茅ヶ崎市堤２３０９−１他（地番）", "自治体": "茅ヶ崎市", "fX": 139.42111, "fY": 35.36428 }, "geometry": { "type": "Point", "coordinates": [ 139.42111, 35.36428 ] } },
{ "type": "Feature", "properties": { "店名": "ファミリーマート辻堂駅西口店", "住所": "神奈川県茅ヶ崎市赤松町１３番１号", "自治体": "茅ヶ崎市", "fX": 139.44191, "fY": 35.33876 }, "geometry": { "type": "Point", "coordinates": [ 139.44191, 35.33876 ] } },
{ "type": "Feature", "properties": { "店名": "ファミリーマート茅ヶ崎赤羽根店", "住所": "神奈川県茅ヶ崎市赤羽根２２５２−１", "自治体": "茅ヶ崎市", "fX": 139.43434, "fY": 35.34644 }, "geometry": { "type": "Point", "coordinates": [ 139.43434, 35.34644 ] } },
{ "type": "Feature", "properties": { "店名": "ファミリーマート逗子・葉山駅前店", "住所": "神奈川県逗子市逗子５−１−２３", "自治体": "逗子市", "fX": 139.58061, "fY": 35.29638 }, "geometry": { "type": "Point", "coordinates": [ 139.58061, 35.29638 ] } },
{ "type": "Feature", "properties": { "店名": "ファミリーマート平塚紅谷町店", "住所": "神奈川県平塚市紅谷町２−１４", "自治体": "平塚市", "fX": 139.34999, "fY": 35.32945 }, "geometry": { "type": "Point", "coordinates": [ 139.34999, 35.32945 ] } },
{ "type": "Feature", "properties": { "店名": "ファミリーマート平塚駅北口店", "住所": "神奈川県平塚市紅谷町４−３", "自治体": "平塚市", "fX": 139.34911, "fY": 35.32912 }, "geometry": { "type": "Point", "coordinates": [ 139.34911, 35.32912 ] } },
{ "type": "Feature", "properties": { "店名": "ファミリーマート綾瀬大上一丁目店", "住所": "神奈川県綾瀬市大上一丁目２番８号", "自治体": "綾瀬市", "fX": 139.42982, "fY": 35.45147 }, "geometry": { "type": "Point", "coordinates": [ 139.42982, 35.45147 ] } },
{ "type": "Feature", "properties": { "店名": "ファミリーマート愛甲石田駅前店", "住所": "神奈川県伊勢原市石田６０２番地１安田屋ビル１Ｆ", "自治体": "伊勢原市", "fX": 139.34344, "fY": 35.41675 }, "geometry": { "type": "Point", "coordinates": [ 139.34344, 35.41675 ] } },
{ "type": "Feature", "properties": { "店名": "ファミリーマート南足柄和田河原南店", "住所": "神奈川県南足柄市和田河原１３１７番１", "自治体": "南足柄市", "fX": 139.12468, "fY": 35.31475 }, "geometry": { "type": "Point", "coordinates": [ 139.12468, 35.31475 ] } },
{ "type": "Feature", "properties": { "店名": "ファミリーマート寒川一之宮店", "住所": "神奈川県高座郡寒川町一之宮一丁目１０−４１", "自治体": "高座郡寒川町", "fX": 139.38652, "fY": 35.36661 }, "geometry": { "type": "Point", "coordinates": [ 139.38652, 35.36661 ] } },
{ "type": "Feature", "properties": { "店名": "ファミリーマート海老名中央三丁目店", "住所": "神奈川県海老名市中央３−３−３３", "自治体": "海老名市", "fX": 139.38934, "fY": 35.45006 }, "geometry": { "type": "Point", "coordinates": [ 139.38934, 35.45006 ] } },
{ "type": "Feature", "properties": { "店名": "ファミリーマートさがみ野店", "住所": "神奈川県海老名市東柏ケ谷３丁目１３番６号", "自治体": "海老名市", "fX": 139.42836, "fY": 35.47252 }, "geometry": { "type": "Point", "coordinates": [ 139.42836, 35.47252 ] } },
{ "type": "Feature", "properties": { "店名": "ファミリーマートフレストつくばみらい陽光台店", "住所": "茨城県つくばみらい市小張４０８９番地４３（陽光台２丁目２０７街区１画地）", "自治体": "つくばみらい市", "fX": 140.04579, "fY": 35.9882 }, "geometry": { "type": "Point", "coordinates": [ 140.04579, 35.9882 ] } },
{ "type": "Feature", "properties": { "店名": "ファミリーマートひたち野うしく東店", "住所": "茨城県牛久市ひたち野東３４１−１", "自治体": "牛久市", "fX": 140.16136, "fY": 36.00998 }, "geometry": { "type": "Point", "coordinates": [ 140.16136, 36.00998 ] } },
{ "type": "Feature", "properties": { "店名": "ファミリーマート牛久中央二丁目店", "住所": "茨城県牛久市中央２−１６−１２", "自治体": "牛久市", "fX": 140.14616, "fY": 35.98296 }, "geometry": { "type": "Point", "coordinates": [ 140.14616, 35.98296 ] } },
{ "type": "Feature", "properties": { "店名": "ファミリーマート佐貫駅前店", "住所": "茨城県龍ケ崎市佐貫町６４５−１関東鉄道佐貫ビル２", "自治体": "龍ケ崎市", "fX": 140.13805, "fY": 35.92896 }, "geometry": { "type": "Point", "coordinates": [ 140.13805, 35.92896 ] } },
{ "type": "Feature", "properties": { "店名": "ファミリーマート龍ヶ崎北方店", "住所": "茨城県龍ケ崎市北方町２１０８他８筆", "自治体": "龍ケ崎市", "fX": 140.16008, "fY": 35.88251 }, "geometry": { "type": "Point", "coordinates": [ 140.16008, 35.88251 ] } },
{ "type": "Feature", "properties": { "店名": "ファミリーマート坂東辺田店", "住所": "茨城県坂東市辺田１４０２−９０", "自治体": "坂東市", "fX": 139.89839, "fY": 36.04466 }, "geometry": { "type": "Point", "coordinates": [ 139.89839, 36.04466 ] } },
{ "type": "Feature", "properties": { "店名": "ファミリーマート古河東本町店", "住所": "茨城県古河市古河５２０番１", "自治体": "古河市", "fX": 139.71368, "fY": 36.19216 }, "geometry": { "type": "Point", "coordinates": [ 139.71368, 36.19216 ] } },
{ "type": "Feature", "properties": { "店名": "ファミリーマート古河旭町店", "住所": "茨城県古河市旭町２丁目１番５５", "自治体": "古河市", "fX": 139.72505, "fY": 36.19419 }, "geometry": { "type": "Point", "coordinates": [ 139.72505, 36.19419 ] } },
{ "type": "Feature", "properties": { "店名": "ファミリーマート古河横山町店", "住所": "茨城県古河市横山町三丁目５４４９番地３", "自治体": "古河市", "fX": 139.7047, "fY": 36.20148 }, "geometry": { "type": "Point", "coordinates": [ 139.7047, 36.20148 ] } },
{ "type": "Feature", "properties": { "店名": "ファミリーマートひたちなか北神敷台店", "住所": "茨城県ひたちなか市北神敷台１８−１５", "自治体": "ひたちなか市", "fX": 140.59328, "fY": 36.35505 }, "geometry": { "type": "Point", "coordinates": [ 140.59328, 36.35505 ] } },
{ "type": "Feature", "properties": { "店名": "ファミリーマートひたちなか津田店", "住所": "茨城県ひたちなか市津田東３−１−１", "自治体": "ひたちなか市", "fX": 140.50471, "fY": 36.40981 }, "geometry": { "type": "Point", "coordinates": [ 140.50471, 36.40981 ] } },
{ "type": "Feature", "properties": { "店名": "ファミリーマートひたちなか湊本町店", "住所": "茨城県ひたちなか市湊本町６番１７号", "自治体": "ひたちなか市", "fX": 140.59328, "fY": 36.34246 }, "geometry": { "type": "Point", "coordinates": [ 140.59328, 36.34246 ] } },
{ "type": "Feature", "properties": { "店名": "ファミリーマートひたちなか西大島店", "住所": "茨城県ひたちなか市西大島三丁目１番７号", "自治体": "ひたちなか市", "fX": 140.52383, "fY": 36.40486 }, "geometry": { "type": "Point", "coordinates": [ 140.52383, 36.40486 ] } },
{ "type": "Feature", "properties": { "店名": "ファミリーマートつくばＱ'ｔ店", "住所": "茨城県つくば市吾妻１−６−１", "自治体": "つくば市", "fX": 140.11163, "fY": 36.08186 }, "geometry": { "type": "Point", "coordinates": [ 140.11163, 36.08186 ] } },
{ "type": "Feature", "properties": { "店名": "ファミリーマートつくば面野井店", "住所": "茨城県つくば市大字面野井字丸山１６５−１", "自治体": "つくば市", "fX": 140.06804, "fY": 36.07635 }, "geometry": { "type": "Point", "coordinates": [ 140.06804, 36.07635 ] } },
{ "type": "Feature", "properties": { "店名": "ファミリーマートつくば研究学園四丁目店", "住所": "茨城県つくば市研究学園４−２−１５", "自治体": "つくば市", "fX": 140.07866, "fY": 36.0853 }, "geometry": { "type": "Point", "coordinates": [ 140.07866, 36.0853 ] } },
{ "type": "Feature", "properties": { "店名": "ファミリーマートつくば葛城店", "住所": "茨城県つくば市研究学園７−４３−８", "自治体": "つくば市", "fX": 140.09734, "fY": 36.08454 }, "geometry": { "type": "Point", "coordinates": [ 140.09734, 36.08454 ] } },
{ "type": "Feature", "properties": { "店名": "ファミリーマートつくばみどりの店", "住所": "茨城県つくば市花島新田字北原１０−６（みどりの中央Ｂ２４ー１）", "自治体": "つくば市", "fX": 140.0508, "fY": 36.03135 }, "geometry": { "type": "Point", "coordinates": [ 140.0508, 36.03135 ] } },
{ "type": "Feature", "properties": { "店名": "ファミリーマートつくば谷田部中央店", "住所": "茨城県つくば市谷田部２１４０番１", "自治体": "つくば市", "fX": 140.06886, "fY": 36.03553 }, "geometry": { "type": "Point", "coordinates": [ 140.06886, 36.03553 ] } },
{ "type": "Feature", "properties": { "店名": "ファミリーマート境山神店", "住所": "茨城県猿島郡境町８０８", "自治体": "猿島郡境町", "fX": 139.79688, "fY": 36.10599 }, "geometry": { "type": "Point", "coordinates": [ 139.79688, 36.10599 ] } },
{ "type": "Feature", "properties": { "店名": "ファミリーマート大洗港中央店", "住所": "茨城県東茨城郡大洗町磯浜町６８８１番５５０", "自治体": "東茨城郡大洗町", "fX": 140.56891, "fY": 36.31172 }, "geometry": { "type": "Point", "coordinates": [ 140.56891, 36.31172 ] } },
{ "type": "Feature", "properties": { "店名": "ファミリーマート茨城免許センター前店", "住所": "茨城県東茨城郡茨城町上石崎５９５０−４", "自治体": "東茨城郡茨城町", "fX": 140.46219, "fY": 36.31126 }, "geometry": { "type": "Point", "coordinates": [ 140.46219, 36.31126 ] } },
{ "type": "Feature", "properties": { "店名": "ファミリーマート茨城大戸店", "住所": "茨城県東茨城郡茨城町大字大戸１８００−１", "自治体": "東茨城郡茨城町", "fX": 140.41789, "fY": 36.32042 }, "geometry": { "type": "Point", "coordinates": [ 140.41789, 36.32042 ] } },
{ "type": "Feature", "properties": { "店名": "ファミリーマート水戸双葉台店", "住所": "茨城県水戸市双葉台４丁目５８６−２", "自治体": "水戸市", "fX": 140.40468, "fY": 36.3911 }, "geometry": { "type": "Point", "coordinates": [ 140.40468, 36.3911 ] } },
{ "type": "Feature", "properties": { "店名": "ファミリーマート水戸河和田店", "住所": "茨城県水戸市河和田２丁目１７７７−３", "自治体": "水戸市", "fX": 140.40848, "fY": 36.37665 }, "geometry": { "type": "Point", "coordinates": [ 140.40848, 36.37665 ] } },
{ "type": "Feature", "properties": { "店名": "ファミリーマート水戸笠原店", "住所": "茨城県水戸市笠原町４１４−１０", "自治体": "水戸市", "fX": 140.45212, "fY": 36.33723 }, "geometry": { "type": "Point", "coordinates": [ 140.45212, 36.33723 ] } },
{ "type": "Feature", "properties": { "店名": "ファミリーマート水戸飯富町店", "住所": "茨城県水戸市飯富町５２１６番１他１筆", "自治体": "水戸市", "fX": 140.42267, "fY": 36.41892 }, "geometry": { "type": "Point", "coordinates": [ 140.42267, 36.41892 ] } },
{ "type": "Feature", "properties": { "店名": "ファミリーマート取手東四丁目店", "住所": "茨城県取手市東四丁目１−３０", "自治体": "取手市", "fX": 140.07042, "fY": 35.88849 }, "geometry": { "type": "Point", "coordinates": [ 140.07042, 35.88849 ] } },
{ "type": "Feature", "properties": { "店名": "ファミリーマート取手藤代南三丁目店", "住所": "茨城県取手市藤代南３丁目１０−１", "自治体": "取手市", "fX": 140.12199, "fY": 35.91298 }, "geometry": { "type": "Point", "coordinates": [ 140.12199, 35.91298 ] } },
{ "type": "Feature", "properties": { "店名": "ファミリーマート日立金畑店", "住所": "茨城県日立市大沼町三丁目１８番２０号", "自治体": "日立市", "fX": 140.61809, "fY": 36.53071 }, "geometry": { "type": "Point", "coordinates": [ 140.61809, 36.53071 ] } },
{ "type": "Feature", "properties": { "店名": "ファミリーマート日立大沼店", "住所": "茨城県日立市東金沢町５−１８−１", "自治体": "日立市", "fX": 140.62489, "fY": 36.5375 }, "geometry": { "type": "Point", "coordinates": [ 140.62489, 36.5375 ] } },
{ "type": "Feature", "properties": { "店名": "ファミリーマート鹿嶋平井店", "住所": "茨城県鹿嶋市平井１１２８−４５", "自治体": "鹿嶋市", "fX": 140.6485, "fY": 35.96938 }, "geometry": { "type": "Point", "coordinates": [ 140.6485, 35.96938 ] } },
{ "type": "Feature", "properties": { "店名": "ファミリーマート小美玉田木谷店", "住所": "茨城県小美玉市田木谷１１１−１", "自治体": "小美玉市", "fX": 140.34761, "fY": 36.17055 }, "geometry": { "type": "Point", "coordinates": [ 140.34761, 36.17055 ] } },
{ "type": "Feature", "properties": { "店名": "ファミリーマート那珂瓜連店", "住所": "茨城県那珂市瓜連１３９２−１", "自治体": "那珂市", "fX": 140.4485, "fY": 36.50266 }, "geometry": { "type": "Point", "coordinates": [ 140.4485, 36.50266 ] } },
{ "type": "Feature", "properties": { "店名": "ファミリーマート那珂竹ノ内店", "住所": "茨城県那珂市竹ノ内２丁目１−１", "自治体": "那珂市", "fX": 140.49852, "fY": 36.44918 }, "geometry": { "type": "Point", "coordinates": [ 140.49852, 36.44918 ] } },
{ "type": "Feature", "properties": { "店名": "ファミリーマート守谷みずき野店", "住所": "茨城県守谷市みずき野５−乙７４−１２", "自治体": "守谷市", "fX": 140.01242, "fY": 35.93694 }, "geometry": { "type": "Point", "coordinates": [ 140.01242, 35.93694 ] } },
{ "type": "Feature", "properties": { "店名": "ファミリーマート守谷立沢店", "住所": "茨城県守谷市立沢２５２番地１", "自治体": "守谷市", "fX": 139.97598, "fY": 35.95373 }, "geometry": { "type": "Point", "coordinates": [ 139.97598, 35.95373 ] } },
{ "type": "Feature", "properties": { "店名": "ファミリーマート守谷美園店", "住所": "茨城県守谷市美園１丁目９番５", "自治体": "守谷市", "fX": 140.00325, "fY": 35.92851 }, "geometry": { "type": "Point", "coordinates": [ 140.00325, 35.92851 ] } },
{ "type": "Feature", "properties": { "店名": "ファミリーマート守谷鈴塚店", "住所": "茨城県守谷市鈴塚字五十塚３０１番１", "自治体": "守谷市", "fX": 139.9817, "fY": 35.93786 }, "geometry": { "type": "Point", "coordinates": [ 139.9817, 35.93786 ] } },
{ "type": "Feature", "properties": { "店名": "ファミリーマート結城工業団地前店", "住所": "茨城県結城市作の谷４００", "自治体": "結城市", "fX": 139.87715, "fY": 36.30526 }, "geometry": { "type": "Point", "coordinates": [ 139.87715, 36.30526 ] } },
{ "type": "Feature", "properties": { "店名": "ファミリーマート千代田ＰＡ上り店", "住所": "茨城県かすみがうら市中佐谷字愛宕１７２−１", "自治体": "かすみがうら市", "fX": 140.22374, "fY": 36.15145 }, "geometry": { "type": "Point", "coordinates": [ 140.22374, 36.15145 ] } },
{ "type": "Feature", "properties": { "店名": "ファミリーマート神栖中央公園前店", "住所": "茨城県神栖市大野原２丁目１−１７", "自治体": "神栖市", "fX": 140.64995, "fY": 35.8946 }, "geometry": { "type": "Point", "coordinates": [ 140.64995, 35.8946 ] } },
{ "type": "Feature", "properties": { "店名": "ファミリーマート常総新石下店", "住所": "茨城県常総市新石下３９８５番２", "自治体": "常総市", "fX": 139.98149, "fY": 36.10984 }, "geometry": { "type": "Point", "coordinates": [ 139.98149, 36.10984 ] } },
{ "type": "Feature", "properties": { "店名": "ファミリーマート石岡駅東口店", "住所": "茨城県石岡市石岡二丁目６番地３２", "自治体": "石岡市", "fX": 140.28159, "fY": 36.19203 }, "geometry": { "type": "Point", "coordinates": [ 140.28159, 36.19203 ] } },
{ "type": "Feature", "properties": { "店名": "ファミリーマート稲敷江戸崎店", "住所": "茨城県稲敷市犬塚１６１７−１６９", "自治体": "稲敷市", "fX": 140.29451, "fY": 35.97295 }, "geometry": { "type": "Point", "coordinates": [ 140.29451, 35.97295 ] } },
{ "type": "Feature", "properties": { "店名": "ファミリーマート桜川白井店", "住所": "茨城県桜川市真壁町白井６４１番地１", "自治体": "桜川市", "fX": 140.12764, "fY": 36.28563 }, "geometry": { "type": "Point", "coordinates": [ 140.12764, 36.28563 ] } },
{ "type": "Feature", "properties": { "店名": "ファミリーマート土浦西根南店", "住所": "茨城県土浦市西根南三丁目６−２０", "自治体": "土浦市", "fX": 140.1552, "fY": 36.04312 }, "geometry": { "type": "Point", "coordinates": [ 140.1552, 36.04312 ] } },
{ "type": "Feature", "properties": { "店名": "ファミリーマート宇都宮元今泉七丁目店", "住所": "栃木県宇都宮市元今泉七丁目１−２０", "自治体": "宇都宮市", "fX": 139.91278, "fY": 36.56297 }, "geometry": { "type": "Point", "coordinates": [ 139.91278, 36.56297 ] } },
{ "type": "Feature", "properties": { "店名": "ファミリーマート宇都宮辰街道店", "住所": "栃木県宇都宮市平出町２３２１番４", "自治体": "宇都宮市", "fX": 139.95117, "fY": 36.5833 }, "geometry": { "type": "Point", "coordinates": [ 139.95117, 36.5833 ] } },
{ "type": "Feature", "properties": { "店名": "ファミリーマート宇都宮戸祭店", "住所": "栃木県宇都宮市戸祭町３０３１−２", "自治体": "宇都宮市", "fX": 139.87541, "fY": 36.576 }, "geometry": { "type": "Point", "coordinates": [ 139.87541, 36.576 ] } },
{ "type": "Feature", "properties": { "店名": "ファミリーマート宇都宮桜二丁目店", "住所": "栃木県宇都宮市桜二丁目２番２５号", "自治体": "宇都宮市", "fX": 139.86995, "fY": 36.565 }, "geometry": { "type": "Point", "coordinates": [ 139.86995, 36.565 ] } },
{ "type": "Feature", "properties": { "店名": "ファミリーマート宇都宮砥上町店", "住所": "栃木県宇都宮市砥上町９４３−９", "自治体": "宇都宮市", "fX": 139.83725, "fY": 36.5511 }, "geometry": { "type": "Point", "coordinates": [ 139.83725, 36.5511 ] } },
{ "type": "Feature", "properties": { "店名": "ファミリーマート済生会宇都宮病院店", "住所": "栃木県宇都宮市竹林町字高田９１８番地１", "自治体": "宇都宮市", "fX": 139.90405, "fY": 36.57776 }, "geometry": { "type": "Point", "coordinates": [ 139.90405, 36.57776 ] } },
{ "type": "Feature", "properties": { "店名": "ファミリーマート子ども科学館前店", "住所": "栃木県宇都宮市西川田本町三丁目２４番２０号", "自治体": "宇都宮市", "fX": 139.84166, "fY": 36.51375 }, "geometry": { "type": "Point", "coordinates": [ 139.84166, 36.51375 ] } },
{ "type": "Feature", "properties": { "店名": "ファミリーマート宇都宮西川田駅前店", "住所": "栃木県宇都宮市西川田本町二丁目１２９５番１１他７筆", "自治体": "宇都宮市", "fX": 139.84802, "fY": 36.51522 }, "geometry": { "type": "Point", "coordinates": [ 139.84802, 36.51522 ] } },
{ "type": "Feature", "properties": { "店名": "ファミリーマート宇都宮豊郷台店", "住所": "栃木県宇都宮市長岡町４５番地１", "自治体": "宇都宮市", "fX": 139.88821, "fY": 36.59773 }, "geometry": { "type": "Point", "coordinates": [ 139.88821, 36.59773 ] } },
{ "type": "Feature", "properties": { "店名": "ファミリーマート那須塩原下永田店", "住所": "栃木県那須塩原市下永田５丁目１３８９−１８", "自治体": "那須塩原市", "fX": 139.99081, "fY": 36.87272 }, "geometry": { "type": "Point", "coordinates": [ 139.99081, 36.87272 ] } },
{ "type": "Feature", "properties": { "店名": "ファミリーマートベツイ栃木倭町店", "住所": "栃木県栃木市倭町１０番１号", "自治体": "栃木市", "fX": 139.73395, "fY": 36.37809 }, "geometry": { "type": "Point", "coordinates": [ 139.73395, 36.37809 ] } },
{ "type": "Feature", "properties": { "店名": "ファミリーマートベツイ栃木大宮店", "住所": "栃木県栃木市大宮町字竜神前５３４番", "自治体": "栃木市", "fX": 139.76257, "fY": 36.38958 }, "geometry": { "type": "Point", "coordinates": [ 139.76257, 36.38958 ] } },
{ "type": "Feature", "properties": { "店名": "ファミリーマート栃木大平町店", "住所": "栃木県栃木市大平町富田３７１番地２", "自治体": "栃木市", "fX": 139.69743, "fY": 36.33783 }, "geometry": { "type": "Point", "coordinates": [ 139.69743, 36.33783 ] } },
{ "type": "Feature", "properties": { "店名": "ファミリーマート栃木樋ノ口店", "住所": "栃木県栃木市樋ノ口町字中芝原７５番４", "自治体": "栃木市", "fX": 139.75795, "fY": 36.36072 }, "geometry": { "type": "Point", "coordinates": [ 139.75795, 36.36072 ] } },
{ "type": "Feature", "properties": { "店名": "ファミリーマート自治医科大学附属病院店", "住所": "栃木県下野市薬師寺３３１１−１Ｊプラザ１階", "自治体": "下野市", "fX": 139.85852, "fY": 36.4034 }, "geometry": { "type": "Point", "coordinates": [ 139.85852, 36.4034 ] } },
{ "type": "Feature", "properties": { "店名": "ファミリーマートさくら櫻野店", "住所": "栃木県さくら市櫻野４９６番地", "自治体": "さくら市", "fX": 139.97507, "fY": 36.68261 }, "geometry": { "type": "Point", "coordinates": [ 139.97507, 36.68261 ] } },
{ "type": "Feature", "properties": { "店名": "ファミリーマートさくら東原店", "住所": "栃木県さくら市氏家４５０６番地７", "自治体": "さくら市", "fX": 139.96912, "fY": 36.6889 }, "geometry": { "type": "Point", "coordinates": [ 139.96912, 36.6889 ] } },
{ "type": "Feature", "properties": { "店名": "ファミリーマートさくら長久保店", "住所": "栃木県さくら市長久保字西原１４６６番２", "自治体": "さくら市", "fX": 139.951, "fY": 36.70988 }, "geometry": { "type": "Point", "coordinates": [ 139.951, 36.70988 ] } },
{ "type": "Feature", "properties": { "店名": "ファミリーマート上三川ゆうきが丘店", "住所": "栃木県河内郡上三川町大字上神主５３６番地４", "自治体": "河内郡上三川町", "fX": 139.87935, "fY": 36.44999 }, "geometry": { "type": "Point", "coordinates": [ 139.87935, 36.44999 ] } },
{ "type": "Feature", "properties": { "店名": "ファミリーマート鹿沼上奈良部町店", "住所": "栃木県鹿沼市上奈良部町１番地６", "自治体": "鹿沼市", "fX": 139.76671, "fY": 36.53298 }, "geometry": { "type": "Point", "coordinates": [ 139.76671, 36.53298 ] } },
{ "type": "Feature", "properties": { "店名": "ファミリーマート高根沢石末店", "住所": "栃木県塩谷郡高根沢町大字石末３２４２番地２", "自治体": "塩谷郡高根沢町", "fX": 140.00148, "fY": 36.62929 }, "geometry": { "type": "Point", "coordinates": [ 140.00148, 36.62929 ] } },
{ "type": "Feature", "properties": { "店名": "ファミリーマート高根沢宝石台店", "住所": "栃木県塩谷郡高根沢町宝石台４−１３−９", "自治体": "塩谷郡高根沢町", "fX": 139.99486, "fY": 36.61555 }, "geometry": { "type": "Point", "coordinates": [ 139.99486, 36.61555 ] } },
{ "type": "Feature", "properties": { "店名": "ファミリーマート佐野植野町店", "住所": "栃木県佐野市植野町２０５９番地１", "自治体": "佐野市", "fX": 139.57812, "fY": 36.3065 }, "geometry": { "type": "Point", "coordinates": [ 139.57812, 36.3065 ] } },
{ "type": "Feature", "properties": { "店名": "ファミリーマート小山出井北店", "住所": "栃木県小山市大字出井１２５２番地１０", "自治体": "小山市", "fX": 139.83984, "fY": 36.3405 }, "geometry": { "type": "Point", "coordinates": [ 139.83984, 36.3405 ] } },
{ "type": "Feature", "properties": { "店名": "ファミリーマート小山稲葉郷店", "住所": "栃木県小山市大字稲葉郷６３番地６", "自治体": "小山市", "fX": 139.81303, "fY": 36.325 }, "geometry": { "type": "Point", "coordinates": [ 139.81303, 36.325 ] } },
{ "type": "Feature", "properties": { "店名": "ファミリーマート小山上立木店", "住所": "栃木県小山市大字立木６３６番地２", "自治体": "小山市", "fX": 139.78357, "fY": 36.33018 }, "geometry": { "type": "Point", "coordinates": [ 139.78357, 36.33018 ] } },
{ "type": "Feature", "properties": { "店名": "ファミリーマート小山神鳥谷店", "住所": "栃木県小山市神鳥谷二丁目３３番２３号", "自治体": "小山市", "fX": 139.79288, "fY": 36.29827 }, "geometry": { "type": "Point", "coordinates": [ 139.79288, 36.29827 ] } },
{ "type": "Feature", "properties": { "店名": "ファミリーマート日光松原店", "住所": "栃木県日光市松原町２６７−１他２筆", "自治体": "日光市", "fX": 139.61737, "fY": 36.74811 }, "geometry": { "type": "Point", "coordinates": [ 139.61737, 36.74811 ] } },
{ "type": "Feature", "properties": { "店名": "ファミリーマート日光荊沢店", "住所": "栃木県日光市荊沢５９９−１２６", "自治体": "日光市", "fX": 139.72209, "fY": 36.72525 }, "geometry": { "type": "Point", "coordinates": [ 139.72209, 36.72525 ] } },
{ "type": "Feature", "properties": { "店名": "ファミリーマート日光轟店", "住所": "栃木県日光市轟字合羽山２４番１", "自治体": "日光市", "fX": 139.73891, "fY": 36.75531 }, "geometry": { "type": "Point", "coordinates": [ 139.73891, 36.75531 ] } },
{ "type": "Feature", "properties": { "店名": "ファミリーマート真岡小林店", "住所": "栃木県真岡市小林１４２７番地１", "自治体": "真岡市", "fX": 140.04449, "fY": 36.43836 }, "geometry": { "type": "Point", "coordinates": [ 140.04449, 36.43836 ] } },
{ "type": "Feature", "properties": { "店名": "ファミリーマート真岡荒町三丁目店", "住所": "栃木県真岡市荒町３丁目４８番３", "自治体": "真岡市", "fX": 140.01503, "fY": 36.44493 }, "geometry": { "type": "Point", "coordinates": [ 140.01503, 36.44493 ] } },
{ "type": "Feature", "properties": { "店名": "ファミリーマート大田原南金丸店", "住所": "栃木県大田原市南金丸字東原６１８番１", "自治体": "大田原市", "fX": 140.09398, "fY": 36.85764 }, "geometry": { "type": "Point", "coordinates": [ 140.09398, 36.85764 ] } },
{ "type": "Feature", "properties": { "店名": "ファミリーマート大田原小滝店", "住所": "栃木県大田原市小滝１０７７番２", "自治体": "大田原市", "fX": 140.0663, "fY": 36.89345 }, "geometry": { "type": "Point", "coordinates": [ 140.0663, 36.89345 ] } },
{ "type": "Feature", "properties": { "店名": "ファミリーマート六本木通り店", "住所": "東京都港区六本木７丁目１５−１７", "自治体": "港区", "fX": 139.73042, "fY": 35.66284 }, "geometry": { "type": "Point", "coordinates": [ 139.73042, 35.66284 ] } },
{ "type": "Feature", "properties": { "店名": "ファミリーマート広尾駅前店", "住所": "東京都港区南麻布５丁目１０−２６", "自治体": "港区", "fX": 139.72263, "fY": 35.65329 }, "geometry": { "type": "Point", "coordinates": [ 139.72263, 35.65329 ] } },
{ "type": "Feature", "properties": { "店名": "ファミリーマート新橋桜田公園前店", "住所": "東京都港区新橋４−１１−１", "自治体": "港区", "fX": 139.75648, "fY": 35.66473 }, "geometry": { "type": "Point", "coordinates": [ 139.75648, 35.66473 ] } },
{ "type": "Feature", "properties": { "店名": "ファミリーマート新橋五丁目店", "住所": "東京都港区新橋５丁目１４−１０新橋スクエアビル", "自治体": "港区", "fX": 139.75638, "fY": 35.66215 }, "geometry": { "type": "Point", "coordinates": [ 139.75638, 35.66215 ] } },
{ "type": "Feature", "properties": { "店名": "ファミリーマート汐留タワー店", "住所": "東京都港区東新橋１丁目６−３", "自治体": "港区", "fX": 139.76015, "fY": 35.66426 }, "geometry": { "type": "Point", "coordinates": [ 139.76015, 35.66426 ] } },
{ "type": "Feature", "properties": { "店名": "ファミリーマート汐留イタリア街店", "住所": "東京都港区東新橋２丁目４−１サンマリーノ汐留", "自治体": "港区", "fX": 139.75757, "fY": 35.6618 }, "geometry": { "type": "Point", "coordinates": [ 139.75757, 35.6618 ] } },
{ "type": "Feature", "properties": { "店名": "ファミリーマート浜松町一丁目店", "住所": "東京都港区浜松町１−２７−１７三和ビル", "自治体": "港区", "fX": 139.75513, "fY": 35.65767 }, "geometry": { "type": "Point", "coordinates": [ 139.75513, 35.65767 ] } },
{ "type": "Feature", "properties": { "店名": "ファミリーマート南山堂竹芝駅前店", "住所": "東京都港区海岸１丁目１３−３", "自治体": "港区", "fX": 139.76181, "fY": 35.65444 }, "geometry": { "type": "Point", "coordinates": [ 139.76181, 35.65444 ] } },
{ "type": "Feature", "properties": { "店名": "ファミリーマート芝五丁目店", "住所": "東京都港区芝５−１０−８", "自治体": "港区", "fX": 139.74622, "fY": 35.64923 }, "geometry": { "type": "Point", "coordinates": [ 139.74622, 35.64923 ] } },
{ "type": "Feature", "properties": { "店名": "ファミリーマート麻布十番商店街通り店", "住所": "東京都港区麻布十番２丁目２−４", "自治体": "港区", "fX": 139.73566, "fY": 35.65541 }, "geometry": { "type": "Point", "coordinates": [ 139.73566, 35.65541 ] } },
{ "type": "Feature", "properties": { "店名": "ファミリーマート上石神井駅前店", "住所": "東京都練馬区上石神井１丁目１３−１３", "自治体": "練馬区", "fX": 139.59103, "fY": 35.72572 }, "geometry": { "type": "Point", "coordinates": [ 139.59103, 35.72572 ] } },
{ "type": "Feature", "properties": { "店名": "ファミリーマート練馬南田中一丁目店", "住所": "東京都練馬区南田中１丁目６番１６号", "自治体": "練馬区", "fX": 139.62079, "fY": 35.73086 }, "geometry": { "type": "Point", "coordinates": [ 139.62079, 35.73086 ] } },
{ "type": "Feature", "properties": { "店名": "ファミリーマート練馬土支田二丁目店", "住所": "東京都練馬区土支田２丁目１５−１２", "自治体": "練馬区", "fX": 139.61324, "fY": 35.76114 }, "geometry": { "type": "Point", "coordinates": [ 139.61324, 35.76114 ] } },
{ "type": "Feature", "properties": { "店名": "ファミリーマート朝霞駐屯地店", "住所": "東京都練馬区大泉学園町陸上自衛隊朝霞駐屯地内", "自治体": "練馬区", "fX": 139.59067, "fY": 35.76015 }, "geometry": { "type": "Point", "coordinates": [ 139.59067, 35.76015 ] } },
{ "type": "Feature", "properties": { "店名": "ファミリーマート平和台環八通り店", "住所": "東京都練馬区平和台４丁目２０−１０", "自治体": "練馬区", "fX": 139.65697, "fY": 35.75964 }, "geometry": { "type": "Point", "coordinates": [ 139.65697, 35.75964 ] } },
{ "type": "Feature", "properties": { "店名": "ファミリーマート江古田駅南口店", "住所": "東京都練馬区旭丘１丁目７７−９", "自治体": "練馬区", "fX": 139.67241, "fY": 35.73732 }, "geometry": { "type": "Point", "coordinates": [ 139.67241, 35.73732 ] } },
{ "type": "Feature", "properties": { "店名": "ファミリーマート大泉学園駅前店", "住所": "東京都練馬区東大泉５−４１−１４", "自治体": "練馬区", "fX": 139.58717, "fY": 35.74895 }, "geometry": { "type": "Point", "coordinates": [ 139.58717, 35.74895 ] } },
{ "type": "Feature", "properties": { "店名": "ファミリーマート田柄豊島園通り店", "住所": "東京都練馬区田柄４−３４−６", "自治体": "練馬区", "fX": 139.63795, "fY": 35.76611 }, "geometry": { "type": "Point", "coordinates": [ 139.63795, 35.76611 ] } },
{ "type": "Feature", "properties": { "店名": "ファミリーマート練馬石神井三丁目店", "住所": "東京都練馬区石神井町３丁目２５−２１", "自治体": "練馬区", "fX": 139.60471, "fY": 35.74354 }, "geometry": { "type": "Point", "coordinates": [ 139.60471, 35.74354 ] } },
{ "type": "Feature", "properties": { "店名": "ファミリーマート石神井銀座通り店", "住所": "東京都練馬区石神井町３丁目２８−１", "自治体": "練馬区", "fX": 139.60332, "fY": 35.74241 }, "geometry": { "type": "Point", "coordinates": [ 139.60332, 35.74241 ] } },
{ "type": "Feature", "properties": { "店名": "トモニー練馬駅店", "住所": "東京都練馬区練馬１−３−５", "自治体": "練馬区", "fX": 139.65518, "fY": 35.73792 }, "geometry": { "type": "Point", "coordinates": [ 139.65518, 35.73792 ] } },
{ "type": "Feature", "properties": { "店名": "ファミリーマート豊島園駅前店", "住所": "東京都練馬区練馬４−１７−２", "自治体": "練馬区", "fX": 139.64772, "fY": 35.74271 }, "geometry": { "type": "Point", "coordinates": [ 139.64772, 35.74271 ] } },
{ "type": "Feature", "properties": { "店名": "ファミリーマート江古田千川通り店", "住所": "東京都練馬区豊玉上１−２０−１", "自治体": "練馬区", "fX": 139.67018, "fY": 35.73659 }, "geometry": { "type": "Point", "coordinates": [ 139.67018, 35.73659 ] } },
{ "type": "Feature", "properties": { "店名": "ファミリーマート桜台駅前店", "住所": "東京都練馬区豊玉上２丁目１４−９", "自治体": "練馬区", "fX": 139.66254, "fY": 35.73793 }, "geometry": { "type": "Point", "coordinates": [ 139.66254, 35.73793 ] } },
{ "type": "Feature", "properties": { "店名": "ファミリーマート豊玉南三丁目店", "住所": "東京都練馬区豊玉南三丁目２番９号", "自治体": "練馬区", "fX": 139.65382, "fY": 35.7291 }, "geometry": { "type": "Point", "coordinates": [ 139.65382, 35.7291 ] } },
{ "type": "Feature", "properties": { "店名": "ファミリーマート練馬高松一丁目店", "住所": "東京都練馬区高松１丁目１２−１", "自治体": "練馬区", "fX": 139.63275, "fY": 35.74574 }, "geometry": { "type": "Point", "coordinates": [ 139.63275, 35.74574 ] } },
{ "type": "Feature", "properties": { "店名": "ファミリーマート高野台二丁目店", "住所": "東京都練馬区高野台２丁目１２番１６", "自治体": "練馬区", "fX": 139.62007, "fY": 35.7463 }, "geometry": { "type": "Point", "coordinates": [ 139.62007, 35.7463 ] } },
{ "type": "Feature", "properties": { "店名": "ファミリーマート十条駅西店", "住所": "東京都北区上十条二丁目１００１番", "自治体": "北区", "fX": 139.72078, "fY": 35.7595 }, "geometry": { "type": "Point", "coordinates": [ 139.72078, 35.7595 ] } },
{ "type": "Feature", "properties": { "店名": "ファミリーマート北区十条西口店", "住所": "東京都北区上十条二丁目３１番９号", "自治体": "北区", "fX": 139.72206, "fY": 35.76109 }, "geometry": { "type": "Point", "coordinates": [ 139.72206, 35.76109 ] } },
{ "type": "Feature", "properties": { "店名": "ファミリーマート十条仲原三丁目店", "住所": "東京都北区十条仲原３−８−３", "自治体": "北区", "fX": 139.72035, "fY": 35.76604 }, "geometry": { "type": "Point", "coordinates": [ 139.72035, 35.76604 ] } },
{ "type": "Feature", "properties": { "店名": "ファミリーマート陸上自衛隊十条駐屯地店", "住所": "東京都北区十条台１−５−７０", "自治体": "北区", "fX": 139.72691, "fY": 35.75648 }, "geometry": { "type": "Point", "coordinates": [ 139.72691, 35.75648 ] } },
{ "type": "Feature", "properties": { "店名": "ファミリーマート王子駅南口店", "住所": "東京都北区堀船１−１", "自治体": "北区", "fX": 139.73912, "fY": 35.75201 }, "geometry": { "type": "Point", "coordinates": [ 139.73912, 35.75201 ] } },
{ "type": "Feature", "properties": { "店名": "ファミリーマート東十条六丁目店", "住所": "東京都北区東十条６丁目７−１", "自治体": "北区", "fX": 139.72583, "fY": 35.77163 }, "geometry": { "type": "Point", "coordinates": [ 139.72583, 35.77163 ] } },
{ "type": "Feature", "properties": { "店名": "ファミリーマート浮間舟渡駅前店", "住所": "東京都北区浮間４−３２−２０", "自治体": "北区", "fX": 139.69215, "fY": 35.79116 }, "geometry": { "type": "Point", "coordinates": [ 139.69215, 35.79116 ] } },
{ "type": "Feature", "properties": { "店名": "ファミリーマート王子本町一丁目店", "住所": "東京都北区王子本町１丁目２２番４号", "自治体": "北区", "fX": 139.73355, "fY": 35.75408 }, "geometry": { "type": "Point", "coordinates": [ 139.73355, 35.75408 ] } },
{ "type": "Feature", "properties": { "店名": "ファミリーマート田端新町三丁目店", "住所": "東京都北区田端新町三丁目１３−６", "自治体": "北区", "fX": 139.7625, "fY": 35.74257 }, "geometry": { "type": "Point", "coordinates": [ 139.7625, 35.74257 ] } },
{ "type": "Feature", "properties": { "店名": "ファミリーマート田端一丁目店", "住所": "東京都北区田端１丁目１２−１３", "自治体": "北区", "fX": 139.75951, "fY": 35.73376 }, "geometry": { "type": "Point", "coordinates": [ 139.75951, 35.73376 ] } },
{ "type": "Feature", "properties": { "店名": "ファミリーマート駒込霜降橋店", "住所": "東京都北区西ヶ原１丁目２−３", "自治体": "北区", "fX": 139.74709, "fY": 35.73996 }, "geometry": { "type": "Point", "coordinates": [ 139.74709, 35.73996 ] } },
{ "type": "Feature", "properties": { "店名": "ファミリーマート赤羽駅前店", "住所": "東京都北区赤羽一丁目９番６号", "自治体": "北区", "fX": 139.7216, "fY": 35.77899 }, "geometry": { "type": "Point", "coordinates": [ 139.7216, 35.77899 ] } },
{ "type": "Feature", "properties": { "店名": "ファミリーマート環八北赤羽店", "住所": "東京都北区赤羽北１丁目１９番５号", "自治体": "北区", "fX": 139.71295, "fY": 35.78671 }, "geometry": { "type": "Point", "coordinates": [ 139.71295, 35.78671 ] } },
{ "type": "Feature", "properties": { "店名": "ファミリーマート赤羽西六丁目店", "住所": "東京都北区赤羽西６−３−１４", "自治体": "北区", "fX": 139.70822, "fY": 35.77159 }, "geometry": { "type": "Point", "coordinates": [ 139.70822, 35.77159 ] } },
{ "type": "Feature", "properties": { "店名": "ファミリーマート赤羽一番街店", "住所": "東京都北区赤羽１−６２−１２", "自治体": "北区", "fX": 139.71951, "fY": 35.78237 }, "geometry": { "type": "Point", "coordinates": [ 139.71951, 35.78237 ] } },
{ "type": "Feature", "properties": { "店名": "ファミリーマート赤羽スズラン通り店", "住所": "東京都北区赤羽２丁目１６−２", "自治体": "北区", "fX": 139.72279, "fY": 35.77959 }, "geometry": { "type": "Point", "coordinates": [ 139.72279, 35.77959 ] } },
{ "type": "Feature", "properties": { "店名": "ファミリーマート上野駅入谷口店", "住所": "東京都台東区上野７−７−７早稲田ビルヂング", "自治体": "台東区", "fX": 139.77829, "fY": 35.7138 }, "geometry": { "type": "Point", "coordinates": [ 139.77829, 35.7138 ] } },
{ "type": "Feature", "properties": { "店名": "ファミリーマート東上野四丁目店", "住所": "東京都台東区東上野４丁目３−４", "自治体": "台東区", "fX": 139.77872, "fY": 35.7123 }, "geometry": { "type": "Point", "coordinates": [ 139.77872, 35.7123 ] } },
{ "type": "Feature", "properties": { "店名": "ファミリーマート根岸一丁目店", "住所": "東京都台東区根岸１−５−１４", "自治体": "台東区", "fX": 139.77896, "fY": 35.72213 }, "geometry": { "type": "Point", "coordinates": [ 139.77896, 35.72213 ] } },
{ "type": "Feature", "properties": { "店名": "ファミリーマート浅草雷門前店", "住所": "東京都台東区浅草１−２−１", "自治体": "台東区", "fX": 139.79675, "fY": 35.71106 }, "geometry": { "type": "Point", "coordinates": [ 139.79675, 35.71106 ] } },
{ "type": "Feature", "properties": { "店名": "ファミリーマート蔵前店", "住所": "東京都台東区蔵前２−１７−１", "自治体": "台東区", "fX": 139.79317, "fY": 35.7048 }, "geometry": { "type": "Point", "coordinates": [ 139.79317, 35.7048 ] } },
{ "type": "Feature", "properties": { "店名": "ファミリーマート日野多摩平一丁目店", "住所": "東京都日野市多摩平一丁目３番１５", "自治体": "日野市", "fX": 139.37997, "fY": 35.66101 }, "geometry": { "type": "Point", "coordinates": [ 139.37997, 35.66101 ] } },
{ "type": "Feature", "properties": { "店名": "ファミリーマート日野市立病院前店", "住所": "東京都日野市多摩平三丁目２番１", "自治体": "日野市", "fX": 139.37737, "fY": 35.66667 }, "geometry": { "type": "Point", "coordinates": [ 139.37737, 35.66667 ] } },
{ "type": "Feature", "properties": { "店名": "ファミリーマート日野駅前店", "住所": "東京都日野市大坂上１−３３−１", "自治体": "日野市", "fX": 139.39259, "fY": 35.67936 }, "geometry": { "type": "Point", "coordinates": [ 139.39259, 35.67936 ] } },
{ "type": "Feature", "properties": { "店名": "ファミリーマート日野豊田駅南口店", "住所": "東京都日野市豊田四丁目３５番地６", "自治体": "日野市", "fX": 139.38217, "fY": 35.65933 }, "geometry": { "type": "Point", "coordinates": [ 139.38217, 35.65933 ] } },
{ "type": "Feature", "properties": { "店名": "ファミリーマート八王子めじろ台二丁目店", "住所": "東京都八王子市めじろ台２丁目６５番１２", "自治体": "八王子市", "fX": 139.30981, "fY": 35.63888 }, "geometry": { "type": "Point", "coordinates": [ 139.30981, 35.63888 ] } },
{ "type": "Feature", "properties": { "店名": "ファミリーマート八王子西インター店", "住所": "東京都八王子市下恩方町１７５８", "自治体": "八王子市", "fX": 139.26015, "fY": 35.67242 }, "geometry": { "type": "Point", "coordinates": [ 139.26015, 35.67242 ] } },
{ "type": "Feature", "properties": { "店名": "ファミリーマート北野駅前通り店", "住所": "東京都八王子市北野町５５４−１１", "自治体": "八王子市", "fX": 139.35545, "fY": 35.64638 }, "geometry": { "type": "Point", "coordinates": [ 139.35545, 35.64638 ] } },
{ "type": "Feature", "properties": { "店名": "ファミリーマート西八王子駅北口店", "住所": "東京都八王子市千人町２丁目２０−６", "自治体": "八王子市", "fX": 139.31236, "fY": 35.65705 }, "geometry": { "type": "Point", "coordinates": [ 139.31236, 35.65705 ] } },
{ "type": "Feature", "properties": { "店名": "ファミリーマート京王堀之内駅前店", "住所": "東京都八王子市堀之内三丁目２７", "自治体": "八王子市", "fX": 139.40021, "fY": 35.62478 }, "geometry": { "type": "Point", "coordinates": [ 139.40021, 35.62478 ] } },
{ "type": "Feature", "properties": { "店名": "ファミリーマートＪＲ八王子駅前店", "住所": "東京都八王子市旭町１番４号八王子交通ビル１階", "自治体": "八王子市", "fX": 139.33621, "fY": 35.6558 }, "geometry": { "type": "Point", "coordinates": [ 139.33621, 35.6558 ] } },
{ "type": "Feature", "properties": { "店名": "ファミリーマート京王八王子店", "住所": "東京都八王子市明神町２−２６−１０", "自治体": "八王子市", "fX": 139.34401, "fY": 35.6582 }, "geometry": { "type": "Point", "coordinates": [ 139.34401, 35.6582 ] } },
{ "type": "Feature", "properties": { "店名": "ファミリーマート秀栄東浅川町店", "住所": "東京都八王子市東浅川町５０７−８", "自治体": "八王子市", "fX": 139.29799, "fY": 35.64613 }, "geometry": { "type": "Point", "coordinates": [ 139.29799, 35.64613 ] } },
{ "type": "Feature", "properties": { "店名": "ファミリーマート秀栄館町店", "住所": "東京都八王子市館町１０９７−２０６", "自治体": "八王子市", "fX": 139.28412, "fY": 35.62996 }, "geometry": { "type": "Point", "coordinates": [ 139.28412, 35.62996 ] } },
{ "type": "Feature", "properties": { "店名": "ファミリーマート世田谷中町店", "住所": "東京都世田谷区中町４丁目１９番７", "自治体": "世田谷区", "fX": 139.64494, "fY": 35.61634 }, "geometry": { "type": "Point", "coordinates": [ 139.64494, 35.61634 ] } },
{ "type": "Feature", "properties": { "店名": "ファミリーマート太子堂三丁目店", "住所": "東京都世田谷区太子堂３−１５−２ゴリラビル", "自治体": "世田谷区", "fX": 139.66907, "fY": 35.64776 }, "geometry": { "type": "Point", "coordinates": [ 139.66907, 35.64776 ] } },
{ "type": "Feature", "properties": { "店名": "ファミリーマート世田谷新町三丁目店", "住所": "東京都世田谷区新町３−２２−１", "自治体": "世田谷区", "fX": 139.64618, "fY": 35.63218 }, "geometry": { "type": "Point", "coordinates": [ 139.64618, 35.63218 ] } },
{ "type": "Feature", "properties": { "店名": "ファミリーマート明大前北店", "住所": "東京都世田谷区松原二丁目４４−６", "自治体": "世田谷区", "fX": 139.64969, "fY": 35.66902 }, "geometry": { "type": "Point", "coordinates": [ 139.64969, 35.66902 ] } },
{ "type": "Feature", "properties": { "店名": "ファミリーマート桜丘世田谷通り店", "住所": "東京都世田谷区桜丘３丁目２６番３号", "自治体": "世田谷区", "fX": 139.62764, "fY": 35.6394 }, "geometry": { "type": "Point", "coordinates": [ 139.62764, 35.6394 ] } },
{ "type": "Feature", "properties": { "店名": "ファミリーマート世田谷玉堤店", "住所": "東京都世田谷区玉堤一丁目１４番１９号", "自治体": "世田谷区", "fX": 139.6523, "fY": 35.59689 }, "geometry": { "type": "Point", "coordinates": [ 139.6523, 35.59689 ] } },
{ "type": "Feature", "properties": { "店名": "ファミリーマート祖師ヶ谷大蔵駅前店", "住所": "東京都世田谷区砧６丁目３９−７桃李花ビル", "自治体": "世田谷区", "fX": 139.60931, "fY": 35.64294 }, "geometry": { "type": "Point", "coordinates": [ 139.60931, 35.64294 ] } },
{ "type": "Feature", "properties": { "店名": "ファミリーマート祖師ヶ谷大蔵駅西店", "住所": "東京都世田谷区祖師谷３丁目３２−５", "自治体": "世田谷区", "fX": 139.60832, "fY": 35.64346 }, "geometry": { "type": "Point", "coordinates": [ 139.60832, 35.64346 ] } },
{ "type": "Feature", "properties": { "店名": "ファミリーマート経堂駅前店", "住所": "東京都世田谷区経堂１丁目１９−６三丸ビル", "自治体": "世田谷区", "fX": 139.6375, "fY": 35.65086 }, "geometry": { "type": "Point", "coordinates": [ 139.6375, 35.65086 ] } },
{ "type": "Feature", "properties": { "店名": "ファミリーマート経堂農大通り店", "住所": "東京都世田谷区経堂１−２６−１２", "自治体": "世田谷区", "fX": 139.63576, "fY": 35.64804 }, "geometry": { "type": "Point", "coordinates": [ 139.63576, 35.64804 ] } },
{ "type": "Feature", "properties": { "店名": "ファミリーマート世田谷千歳通り店", "住所": "東京都世田谷区船橋１−３０−４グランハウス千歳船橋", "自治体": "世田谷区", "fX": 139.62111, "fY": 35.64836 }, "geometry": { "type": "Point", "coordinates": [ 139.62111, 35.64836 ] } },
{ "type": "Feature", "properties": { "店名": "ファミリーマート南千住五丁目店", "住所": "東京都荒川区南千住五丁目２９−１２", "自治体": "荒川区", "fX": 139.79558, "fY": 35.73166 }, "geometry": { "type": "Point", "coordinates": [ 139.79558, 35.73166 ] } },
{ "type": "Feature", "properties": { "店名": "ファミリーマート南千住一丁目店", "住所": "東京都荒川区南千住１−５７−１", "自治体": "荒川区", "fX": 139.7923, "fY": 35.73399 }, "geometry": { "type": "Point", "coordinates": [ 139.7923, 35.73399 ] } },
{ "type": "Feature", "properties": { "店名": "ファミリーマート南千住四丁目店", "住所": "東京都荒川区南千住４丁目９−１", "自治体": "荒川区", "fX": 139.80386, "fY": 35.73629 }, "geometry": { "type": "Point", "coordinates": [ 139.80386, 35.73629 ] } },
{ "type": "Feature", "properties": { "店名": "ファミリーマート南千住八丁目店", "住所": "東京都荒川区南千住８−４−５", "自治体": "荒川区", "fX": 139.80653, "fY": 35.73752 }, "geometry": { "type": "Point", "coordinates": [ 139.80653, 35.73752 ] } },
{ "type": "Feature", "properties": { "店名": "ファミリーマート薬ヒグチ日暮里店", "住所": "東京都荒川区東日暮里５丁目５１−１１静屋ビル", "自治体": "荒川区", "fX": 139.77234, "fY": 35.72815 }, "geometry": { "type": "Point", "coordinates": [ 139.77234, 35.72815 ] } },
{ "type": "Feature", "properties": { "店名": "ファミリーマート町屋一丁目店", "住所": "東京都荒川区町屋１−９−１０", "自治体": "荒川区", "fX": 139.78331, "fY": 35.74637 }, "geometry": { "type": "Point", "coordinates": [ 139.78331, 35.74637 ] } },
{ "type": "Feature", "properties": { "店名": "ファミリーマート町屋八丁目店", "住所": "東京都荒川区町屋８丁目１３−１０", "自治体": "荒川区", "fX": 139.78683, "fY": 35.74865 }, "geometry": { "type": "Point", "coordinates": [ 139.78683, 35.74865 ] } },
{ "type": "Feature", "properties": { "店名": "ファミリーマート荒川六丁目店", "住所": "東京都荒川区荒川６−４０−５", "自治体": "荒川区", "fX": 139.77673, "fY": 35.74351 }, "geometry": { "type": "Point", "coordinates": [ 139.77673, 35.74351 ] } },
{ "type": "Feature", "properties": { "店名": "ファミリーマート西尾久一丁目店", "住所": "東京都荒川区西尾久１丁目１１−８", "自治体": "荒川区", "fX": 139.76427, "fY": 35.74464 }, "geometry": { "type": "Point", "coordinates": [ 139.76427, 35.74464 ] } },
{ "type": "Feature", "properties": { "店名": "ファミリーマート日暮里店", "住所": "東京都荒川区西日暮里二丁目１７番５号", "自治体": "荒川区", "fX": 139.77205, "fY": 35.72923 }, "geometry": { "type": "Point", "coordinates": [ 139.77205, 35.72923 ] } },
{ "type": "Feature", "properties": { "店名": "ファミリーマート舎人ライナー日暮里駅／Ｓ店", "住所": "東京都荒川区西日暮里２丁目１９−２", "自治体": "荒川区", "fX": 139.77158, "fY": 35.72851 }, "geometry": { "type": "Point", "coordinates": [ 139.77158, 35.72851 ] } },
{ "type": "Feature", "properties": { "店名": "ファミリーマート西日暮里四丁目店", "住所": "東京都荒川区西日暮里４−２１−３", "自治体": "荒川区", "fX": 139.76477, "fY": 35.73172 }, "geometry": { "type": "Point", "coordinates": [ 139.76477, 35.73172 ] } },
{ "type": "Feature", "properties": { "店名": "ファミリーマート上鷺宮二丁目店", "住所": "東京都中野区上鷺宮２−１１−２", "自治体": "中野区", "fX": 139.63408, "fY": 35.7271 }, "geometry": { "type": "Point", "coordinates": [ 139.63408, 35.7271 ] } },
{ "type": "Feature", "properties": { "店名": "ファミリーマート都営線中野坂上駅／Ｓ店", "住所": "東京都中野区中央２丁目２−２８大江戸線中野坂上駅地下１階", "自治体": "中野区", "fX": 139.68187, "fY": 35.69766 }, "geometry": { "type": "Point", "coordinates": [ 139.68187, 35.69766 ] } },
{ "type": "Feature", "properties": { "店名": "ファミリーマート中野三丁目店", "住所": "東京都中野区中野三丁目３７−７", "自治体": "中野区", "fX": 139.66405, "fY": 35.70522 }, "geometry": { "type": "Point", "coordinates": [ 139.66405, 35.70522 ] } },
{ "type": "Feature", "properties": { "店名": "ファミリーマート中野五丁目店", "住所": "東京都中野区中野５丁目６７−６ビジネスハイツ中野", "自治体": "中野区", "fX": 139.66536, "fY": 35.70827 }, "geometry": { "type": "Point", "coordinates": [ 139.66536, 35.70827 ] } },
{ "type": "Feature", "properties": { "店名": "ファミリーマート中野弥生町店", "住所": "東京都中野区弥生町１−５４−７", "自治体": "中野区", "fX": 139.67758, "fY": 35.69133 }, "geometry": { "type": "Point", "coordinates": [ 139.67758, 35.69133 ] } },
{ "type": "Feature", "properties": { "店名": "ファミリーマート中野本町五丁目店", "住所": "東京都中野区本町五丁目４０−２０", "自治体": "中野区", "fX": 139.66837, "fY": 35.69168 }, "geometry": { "type": "Point", "coordinates": [ 139.66837, 35.69168 ] } },
{ "type": "Feature", "properties": { "店名": "ファミリーマート新中野駅前店", "住所": "東京都中野区本町４丁目４７−９ヴェルティーク新中野１Ｆ", "自治体": "中野区", "fX": 139.6683, "fY": 35.69713 }, "geometry": { "type": "Point", "coordinates": [ 139.6683, 35.69713 ] } },
{ "type": "Feature", "properties": { "店名": "ファミリーマート東中野駅北店", "住所": "東京都中野区東中野四丁目１０番２０号", "自治体": "中野区", "fX": 139.68593, "fY": 35.70799 }, "geometry": { "type": "Point", "coordinates": [ 139.68593, 35.70799 ] } },
{ "type": "Feature", "properties": { "店名": "ファミリーマート野方駅南店", "住所": "東京都中野区野方５丁目２９−１", "自治体": "中野区", "fX": 139.65271, "fY": 35.71907 }, "geometry": { "type": "Point", "coordinates": [ 139.65271, 35.71907 ] } },
{ "type": "Feature", "properties": { "店名": "ファミリーマート野方駅北口店", "住所": "東京都中野区野方６−３−４", "自治体": "中野区", "fX": 139.65276, "fY": 35.72011 }, "geometry": { "type": "Point", "coordinates": [ 139.65276, 35.72011 ] } },
{ "type": "Feature", "properties": { "店名": "ファミリーマート鷺宮駅前店", "住所": "東京都中野区鷺宮３−２０−３", "自治体": "中野区", "fX": 139.63844, "fY": 35.72377 }, "geometry": { "type": "Point", "coordinates": [ 139.63844, 35.72377 ] } },
{ "type": "Feature", "properties": { "店名": "ファミリーマート玉川上水駅前店", "住所": "東京都立川市幸町六丁目３７−１", "自治体": "立川市", "fX": 139.42274, "fY": 35.73109 }, "geometry": { "type": "Point", "coordinates": [ 139.42274, 35.73109 ] } },
{ "type": "Feature", "properties": { "店名": "ファミリーマート立川北口店", "住所": "東京都立川市曙町２−２２−２２ＴＢＫ立川ビル", "自治体": "立川市", "fX": 139.41698, "fY": 35.6988 }, "geometry": { "type": "Point", "coordinates": [ 139.41698, 35.6988 ] } },
{ "type": "Feature", "properties": { "店名": "ファミリーマート立川駅南口店", "住所": "東京都立川市柴崎町３丁目３−７", "自治体": "立川市", "fX": 139.41405, "fY": 35.69688 }, "geometry": { "type": "Point", "coordinates": [ 139.41405, 35.69688 ] } },
{ "type": "Feature", "properties": { "店名": "ファミリーマート立川通り店", "住所": "東京都立川市栄町３丁目５３−１", "自治体": "立川市", "fX": 139.42632, "fY": 35.70786 }, "geometry": { "type": "Point", "coordinates": [ 139.42632, 35.70786 ] } },
{ "type": "Feature", "properties": { "店名": "ファミリーマート西国立駅前店", "住所": "東京都立川市羽衣町２丁目４３−１", "自治体": "立川市", "fX": 139.42458, "fY": 35.69297 }, "geometry": { "type": "Point", "coordinates": [ 139.42458, 35.69297 ] } },
{ "type": "Feature", "properties": { "店名": "ファミリーマート立川錦町店", "住所": "東京都立川市錦町１−４−４", "自治体": "立川市", "fX": 139.41698, "fY": 35.69613 }, "geometry": { "type": "Point", "coordinates": [ 139.41698, 35.69613 ] } },
{ "type": "Feature", "properties": { "店名": "ファミリーマート立川錦町六丁目店", "住所": "東京都立川市錦町６丁目１番２１号", "自治体": "立川市", "fX": 139.41714, "fY": 35.68982 }, "geometry": { "type": "Point", "coordinates": [ 139.41714, 35.68982 ] } },
{ "type": "Feature", "properties": { "店名": "ファミリーマート中河原駅前店", "住所": "東京都府中市住吉町２丁目２−７", "自治体": "府中市", "fX": 139.45784, "fY": 35.65924 }, "geometry": { "type": "Point", "coordinates": [ 139.45784, 35.65924 ] } },
{ "type": "Feature", "properties": { "店名": "ファミリーマート府中東八通り店", "住所": "東京都府中市新町２−４８−１．２", "自治体": "府中市", "fX": 139.49431, "fY": 35.68896 }, "geometry": { "type": "Point", "coordinates": [ 139.49431, 35.68896 ] } },
{ "type": "Feature", "properties": { "店名": "ファミリーマートサンズ東府中駅前店", "住所": "東京都府中市清水ヶ丘１−８−４８京王東府中南ビル", "自治体": "府中市", "fX": 139.49496, "fY": 35.66905 }, "geometry": { "type": "Point", "coordinates": [ 139.49496, 35.66905 ] } },
{ "type": "Feature", "properties": { "店名": "ファミリーマート紅葉丘南参道店", "住所": "東京都府中市紅葉丘１丁目１５−１", "自治体": "府中市", "fX": 139.51187, "fY": 35.67642 }, "geometry": { "type": "Point", "coordinates": [ 139.51187, 35.67642 ] } },
{ "type": "Feature", "properties": { "店名": "ファミリーマート中葛西八丁目店", "住所": "東京都江戸川区中葛西８丁目１３−１７", "自治体": "江戸川区", "fX": 139.87212, "fY": 35.65839 }, "geometry": { "type": "Point", "coordinates": [ 139.87212, 35.65839 ] } },
{ "type": "Feature", "properties": { "店名": "ファミリーマート南葛西四丁目店", "住所": "東京都江戸川区南葛西４丁目６−８", "自治体": "江戸川区", "fX": 139.87248, "fY": 35.64937 }, "geometry": { "type": "Point", "coordinates": [ 139.87248, 35.64937 ] } },
{ "type": "Feature", "properties": { "店名": "ファミリーマート南葛西なぎさ店", "住所": "東京都江戸川区南葛西６−１５−２０エスティーム・ＭＳ", "自治体": "江戸川区", "fX": 139.8792, "fY": 35.64728 }, "geometry": { "type": "Point", "coordinates": [ 139.8792, 35.64728 ] } },
{ "type": "Feature", "properties": { "店名": "ファミリーマート平井三丁目店", "住所": "東京都江戸川区平井３丁目２３−１８", "自治体": "江戸川区", "fX": 139.84367, "fY": 35.70469 }, "geometry": { "type": "Point", "coordinates": [ 139.84367, 35.70469 ] } },
{ "type": "Feature", "properties": { "店名": "ファミリーマート平井駅南口店", "住所": "東京都江戸川区平井４−１１−６", "自治体": "江戸川区", "fX": 139.84384, "fY": 35.70624 }, "geometry": { "type": "Point", "coordinates": [ 139.84384, 35.70624 ] } },
{ "type": "Feature", "properties": { "店名": "ファミリーマート西瑞江二丁目店", "住所": "東京都江戸川区瑞江四丁目１０−３", "自治体": "江戸川区", "fX": 139.89148, "fY": 35.69356 }, "geometry": { "type": "Point", "coordinates": [ 139.89148, 35.69356 ] } },
{ "type": "Feature", "properties": { "店名": "ファミリーマート船堀一丁目店", "住所": "東京都江戸川区船堀１−８−１５", "自治体": "江戸川区", "fX": 139.8631, "fY": 35.68423 }, "geometry": { "type": "Point", "coordinates": [ 139.8631, 35.68423 ] } },
{ "type": "Feature", "properties": { "店名": "ファミリーマート西一之江店", "住所": "東京都江戸川区西一之江４丁目８−１９", "自治体": "江戸川区", "fX": 139.87279, "fY": 35.69545 }, "geometry": { "type": "Point", "coordinates": [ 139.87279, 35.69545 ] } },
{ "type": "Feature", "properties": { "店名": "ファミリーマート江戸川西小岩五丁目店", "住所": "東京都江戸川区西小岩５丁目１７番１２号", "自治体": "江戸川区", "fX": 139.8801, "fY": 35.74139 }, "geometry": { "type": "Point", "coordinates": [ 139.8801, 35.74139 ] } },
{ "type": "Feature", "properties": { "店名": "ファミリーマートサクマ西葛西店", "住所": "東京都江戸川区西葛西六丁目２３番１２号", "自治体": "江戸川区", "fX": 139.86348, "fY": 35.66394 }, "geometry": { "type": "Point", "coordinates": [ 139.86348, 35.66394 ] } },
{ "type": "Feature", "properties": { "店名": "ファミリーマート西葛西駅前店", "住所": "東京都江戸川区西葛西６−１５−１２", "自治体": "江戸川区", "fX": 139.86052, "fY": 35.66413 }, "geometry": { "type": "Point", "coordinates": [ 139.86052, 35.66413 ] } },
{ "type": "Feature", "properties": { "店名": "ファミリーマート鹿骨二丁目店", "住所": "東京都江戸川区鹿骨２丁目３６−１２", "自治体": "江戸川区", "fX": 139.89613, "fY": 35.70504 }, "geometry": { "type": "Point", "coordinates": [ 139.89613, 35.70504 ] } },
{ "type": "Feature", "properties": { "店名": "ファミリーマート小石川ゆたて坂店", "住所": "東京都文京区小石川５−３１−４", "自治体": "文京区", "fX": 139.74013, "fY": 35.72039 }, "geometry": { "type": "Point", "coordinates": [ 139.74013, 35.72039 ] } },
{ "type": "Feature", "properties": { "店名": "ファミリーマート本駒込駅前店", "住所": "東京都文京区本駒込３丁目１−６", "自治体": "文京区", "fX": 139.75386, "fY": 35.7254 }, "geometry": { "type": "Point", "coordinates": [ 139.75386, 35.7254 ] } },
{ "type": "Feature", "properties": { "店名": "ファミリーマート本駒込六丁目店", "住所": "東京都文京区本駒込６−４−２５", "自治体": "文京区", "fX": 139.74316, "fY": 35.73048 }, "geometry": { "type": "Point", "coordinates": [ 139.74316, 35.73048 ] } },
{ "type": "Feature", "properties": { "店名": "ファミリーマート護国寺駅前店", "住所": "東京都文京区音羽２−１０−２", "自治体": "文京区", "fX": 139.72748, "fY": 35.71996 }, "geometry": { "type": "Point", "coordinates": [ 139.72748, 35.71996 ] } },
{ "type": "Feature", "properties": { "店名": "ファミリーマート上池袋三丁目店", "住所": "東京都豊島区上池袋三丁目１番１号ヴィア・シテラ・東京", "自治体": "豊島区", "fX": 139.71992, "fY": 35.73742 }, "geometry": { "type": "Point", "coordinates": [ 139.71992, 35.73742 ] } },
{ "type": "Feature", "properties": { "店名": "トモニー池袋駅１階改札内店", "住所": "東京都豊島区南池袋１丁目２８−１", "自治体": "豊島区", "fX": 139.71141, "fY": 35.72919 }, "geometry": { "type": "Point", "coordinates": [ 139.71141, 35.72919 ] } },
{ "type": "Feature", "properties": { "店名": "ファミリーマート南池袋一丁目店", "住所": "東京都豊島区南池袋１−２５−１アソルティ南池袋", "自治体": "豊島区", "fX": 139.71329, "fY": 35.72857 }, "geometry": { "type": "Point", "coordinates": [ 139.71329, 35.72857 ] } },
{ "type": "Feature", "properties": { "店名": "ファミリーマート巣鴨スポーツセンター前店", "住所": "東京都豊島区巣鴨２丁目４−９", "自治体": "豊島区", "fX": 139.73924, "fY": 35.73449 }, "geometry": { "type": "Point", "coordinates": [ 139.73924, 35.73449 ] } },
{ "type": "Feature", "properties": { "店名": "ファミリーマート巣鴨地蔵通り店", "住所": "東京都豊島区巣鴨３−３４−１", "自治体": "豊島区", "fX": 139.73595, "fY": 35.73546 }, "geometry": { "type": "Point", "coordinates": [ 139.73595, 35.73546 ] } },
{ "type": "Feature", "properties": { "店名": "ファミリーマート東池袋セイコービル店", "住所": "東京都豊島区東池袋１丁目３０−６", "自治体": "豊島区", "fX": 139.71645, "fY": 35.73119 }, "geometry": { "type": "Point", "coordinates": [ 139.71645, 35.73119 ] } },
{ "type": "Feature", "properties": { "店名": "ファミリーマート東池袋店", "住所": "東京都豊島区東池袋３丁目１５−２", "自治体": "豊島区", "fX": 139.71822, "fY": 35.73103 }, "geometry": { "type": "Point", "coordinates": [ 139.71822, 35.73103 ] } },
{ "type": "Feature", "properties": { "店名": "ファミリーマート東池袋三丁目店", "住所": "東京都豊島区東池袋３−１２−１２", "自治体": "豊島区", "fX": 139.71863, "fY": 35.73159 }, "geometry": { "type": "Point", "coordinates": [ 139.71863, 35.73159 ] } },
{ "type": "Feature", "properties": { "店名": "ファミリーマートサンシャイン南店", "住所": "東京都豊島区東池袋４−２６−１", "自治体": "豊島区", "fX": 139.71837, "fY": 35.72845 }, "geometry": { "type": "Point", "coordinates": [ 139.71837, 35.72845 ] } },
{ "type": "Feature", "properties": { "店名": "ファミリーマート池袋ロイヤルホテル店", "住所": "東京都豊島区池袋２丁目４２−４", "自治体": "豊島区", "fX": 139.70963, "fY": 35.73357 }, "geometry": { "type": "Point", "coordinates": [ 139.70963, 35.73357 ] } },
{ "type": "Feature", "properties": { "店名": "ファミリーマート目白二丁目店", "住所": "東京都豊島区目白２丁目３９−１", "自治体": "豊島区", "fX": 139.70738, "fY": 35.72157 }, "geometry": { "type": "Point", "coordinates": [ 139.70738, 35.72157 ] } },
{ "type": "Feature", "properties": { "店名": "ファミリーマート西池袋一番街店", "住所": "東京都豊島区西池袋１丁目２４−４いわたビル", "自治体": "豊島区", "fX": 139.7104, "fY": 35.7319 }, "geometry": { "type": "Point", "coordinates": [ 139.7104, 35.7319 ] } },
{ "type": "Feature", "properties": { "店名": "ファミリーマート西池袋四丁目店", "住所": "東京都豊島区西池袋４丁目１３番７号", "自治体": "豊島区", "fX": 139.69965, "fY": 35.72862 }, "geometry": { "type": "Point", "coordinates": [ 139.69965, 35.72862 ] } },
{ "type": "Feature", "properties": { "店名": "ファミリーマート豊島要町店", "住所": "東京都豊島区要町１丁目１１−１", "自治体": "豊島区", "fX": 139.69916, "fY": 35.7336 }, "geometry": { "type": "Point", "coordinates": [ 139.69916, 35.7336 ] } },
{ "type": "Feature", "properties": { "店名": "トモニー東長崎駅／Ｓ店", "住所": "東京都豊島区長崎５丁目１−１", "自治体": "豊島区", "fX": 139.68269, "fY": 35.7309 }, "geometry": { "type": "Point", "coordinates": [ 139.68269, 35.7309 ] } },
{ "type": "Feature", "properties": { "店名": "ファミリーマート久米川駅北口店", "住所": "東京都東村山市栄町１丁目４−２３", "自治体": "東村山市", "fX": 139.47272, "fY": 35.7498 }, "geometry": { "type": "Point", "coordinates": [ 139.47272, 35.7498 ] } },
{ "type": "Feature", "properties": { "店名": "ファミリーマート東村山久米川通り店", "住所": "東京都東村山市栄町２−３１−２２", "自治体": "東村山市", "fX": 139.46948, "fY": 35.74924 }, "geometry": { "type": "Point", "coordinates": [ 139.46948, 35.74924 ] } },
{ "type": "Feature", "properties": { "店名": "ファミリーマート下丸子駅南店", "住所": "東京都大田区下丸子３ー２２−４", "自治体": "大田区", "fX": 139.68587, "fY": 35.56854 }, "geometry": { "type": "Point", "coordinates": [ 139.68587, 35.56854 ] } },
{ "type": "Feature", "properties": { "店名": "ファミリーマート大田中央三丁目店", "住所": "東京都大田区中央３丁目２１番１５号", "自治体": "大田区", "fX": 139.71739, "fY": 35.57438 }, "geometry": { "type": "Point", "coordinates": [ 139.71739, 35.57438 ] } },
{ "type": "Feature", "properties": { "店名": "ファミリーマートサンズ大岡山北口店", "住所": "東京都大田区北千束１−５５−２", "自治体": "大田区", "fX": 139.68544, "fY": 35.61 }, "geometry": { "type": "Point", "coordinates": [ 139.68544, 35.61 ] } },
{ "type": "Feature", "properties": { "店名": "ファミリーマート大田千鳥店", "住所": "東京都大田区千鳥２丁目３７番１０号", "自治体": "大田区", "fX": 139.69429, "fY": 35.56824 }, "geometry": { "type": "Point", "coordinates": [ 139.69429, 35.56824 ] } },
{ "type": "Feature", "properties": { "店名": "ファミリーマート環七南馬込三丁目店", "住所": "東京都大田区南馬込３−３８−６", "自治体": "大田区", "fX": 139.71991, "fY": 35.58305 }, "geometry": { "type": "Point", "coordinates": [ 139.71991, 35.58305 ] } },
{ "type": "Feature", "properties": { "店名": "ファミリーマートポートストア城南島店", "住所": "東京都大田区城南島２−９−１", "自治体": "大田区", "fX": 139.77852, "fY": 35.58054 }, "geometry": { "type": "Point", "coordinates": [ 139.77852, 35.58054 ] } },
{ "type": "Feature", "properties": { "店名": "ファミリーマート大田多摩川二丁目店", "住所": "東京都大田区多摩川２丁目１５−１６", "自治体": "大田区", "fX": 139.69778, "fY": 35.55829 }, "geometry": { "type": "Point", "coordinates": [ 139.69778, 35.55829 ] } },
{ "type": "Feature", "properties": { "店名": "ファミリーマート大田梅屋敷店", "住所": "東京都大田区大森中２−２４−１", "自治体": "大田区", "fX": 139.72951, "fY": 35.56659 }, "geometry": { "type": "Point", "coordinates": [ 139.72951, 35.56659 ] } },
{ "type": "Feature", "properties": { "店名": "ファミリーマート大森駅東口店", "住所": "東京都大田区大森北一丁目４−７ＴＫ大森ビル", "自治体": "大田区", "fX": 139.72839, "fY": 35.5878 }, "geometry": { "type": "Point", "coordinates": [ 139.72839, 35.5878 ] } },
{ "type": "Feature", "properties": { "店名": "ファミリーマート大森東産業道路店", "住所": "東京都大田区大森東二丁目９番１２号スカイレジデンス大森東１階", "自治体": "大田区", "fX": 139.73448, "fY": 35.57325 }, "geometry": { "type": "Point", "coordinates": [ 139.73448, 35.57325 ] } },
{ "type": "Feature", "properties": { "店名": "ファミリーマート三度屋大森東四丁目店", "住所": "東京都大田区大森東４−１７−１", "自治体": "大田区", "fX": 139.73772, "fY": 35.5681 }, "geometry": { "type": "Point", "coordinates": [ 139.73772, 35.5681 ] } },
{ "type": "Feature", "properties": { "店名": "ファミリーマート大田池上一丁目店", "住所": "東京都大田区池上１丁目２８番７号", "自治体": "大田区", "fX": 139.71075, "fY": 35.57523 }, "geometry": { "type": "Point", "coordinates": [ 139.71075, 35.57523 ] } },
{ "type": "Feature", "properties": { "店名": "ファミリーマート矢口二丁目店", "住所": "東京都大田区矢口２−１６ー２", "自治体": "大田区", "fX": 139.69357, "fY": 35.56295 }, "geometry": { "type": "Point", "coordinates": [ 139.69357, 35.56295 ] } },
{ "type": "Feature", "properties": { "店名": "ファミリーマート羽田四丁目店", "住所": "東京都大田区羽田四丁目４番２号", "自治体": "大田区", "fX": 139.74783, "fY": 35.55056 }, "geometry": { "type": "Point", "coordinates": [ 139.74783, 35.55056 ] } },
{ "type": "Feature", "properties": { "店名": "ファミリーマート大田梅屋敷駅前店", "住所": "東京都大田区蒲田二丁目７−１９", "自治体": "大田区", "fX": 139.7276, "fY": 35.56704 }, "geometry": { "type": "Point", "coordinates": [ 139.7276, 35.56704 ] } },
{ "type": "Feature", "properties": { "店名": "ファミリーマート西六郷三丁目店", "住所": "東京都大田区西六郷三丁目３番１号", "自治体": "大田区", "fX": 139.70752, "fY": 35.54744 }, "geometry": { "type": "Point", "coordinates": [ 139.70752, 35.54744 ] } },
{ "type": "Feature", "properties": { "店名": "ファミリーマート野口西糀谷産業道路店", "住所": "東京都大田区西糀谷２丁目１１番１号", "自治体": "大田区", "fX": 139.73816, "fY": 35.55898 }, "geometry": { "type": "Point", "coordinates": [ 139.73816, 35.55898 ] } },
{ "type": "Feature", "properties": { "店名": "ファミリーマート西糀谷四丁目店", "住所": "東京都大田区西糀谷４−１３−１２", "自治体": "大田区", "fX": 139.72928, "fY": 35.55534 }, "geometry": { "type": "Point", "coordinates": [ 139.72928, 35.55534 ] } },
{ "type": "Feature", "properties": { "店名": "ファミリーマート小浦蒲田サンライズ通り店", "住所": "東京都大田区西蒲田７丁目４８−１４", "自治体": "大田区", "fX": 139.71375, "fY": 35.56252 }, "geometry": { "type": "Point", "coordinates": [ 139.71375, 35.56252 ] } },
{ "type": "Feature", "properties": { "店名": "ファミリーマート蒲田西口店", "住所": "東京都大田区西蒲田７−５−１４シティプラザ蒲田１Ｆ", "自治体": "大田区", "fX": 139.71519, "fY": 35.56371 }, "geometry": { "type": "Point", "coordinates": [ 139.71519, 35.56371 ] } },
{ "type": "Feature", "properties": { "店名": "ファミリーマート鵜の木駅前店", "住所": "東京都大田区鵜の木２丁目５−１原田ビル", "自治体": "大田区", "fX": 139.6812, "fY": 35.57512 }, "geometry": { "type": "Point", "coordinates": [ 139.6812, 35.57512 ] } },
{ "type": "Feature", "properties": { "店名": "ファミリーマート両国駅西口店", "住所": "東京都墨田区両国２−２１−５", "自治体": "墨田区", "fX": 139.79269, "fY": 35.69558 }, "geometry": { "type": "Point", "coordinates": [ 139.79269, 35.69558 ] } },
{ "type": "Feature", "properties": { "店名": "ファミリーマート両国亀沢店", "住所": "東京都墨田区亀沢１−２４−１", "自治体": "墨田区", "fX": 139.79765, "fY": 35.69849 }, "geometry": { "type": "Point", "coordinates": [ 139.79765, 35.69849 ] } },
{ "type": "Feature", "properties": { "店名": "ファミリーマート墨田太平三丁目店", "住所": "東京都墨田区太平三丁目１０番１２号", "自治体": "墨田区", "fX": 139.81354, "fY": 35.70091 }, "geometry": { "type": "Point", "coordinates": [ 139.81354, 35.70091 ] } },
{ "type": "Feature", "properties": { "店名": "ファミリーマート江東橋二丁目店", "住所": "東京都墨田区江東橋２−３−４ドルミ錦糸町", "自治体": "墨田区", "fX": 139.81177, "fY": 35.69346 }, "geometry": { "type": "Point", "coordinates": [ 139.81177, 35.69346 ] } },
{ "type": "Feature", "properties": { "店名": "ファミリーマート都立墨東病院店", "住所": "東京都墨田区江東橋４−２３−１５", "自治体": "墨田区", "fX": 139.8188, "fY": 35.69489 }, "geometry": { "type": "Point", "coordinates": [ 139.8188, 35.69489 ] } },
{ "type": "Feature", "properties": { "店名": "ファミリーマート墨田東あずま駅前店", "住所": "東京都墨田区立花３丁目１３−４", "自治体": "墨田区", "fX": 139.83252, "fY": 35.7069 }, "geometry": { "type": "Point", "coordinates": [ 139.83252, 35.7069 ] } },
{ "type": "Feature", "properties": { "店名": "ファミリーマート墨田菊川駅前店", "住所": "東京都墨田区菊川２−５−１０", "自治体": "墨田区", "fX": 139.80539, "fY": 35.68822 }, "geometry": { "type": "Point", "coordinates": [ 139.80539, 35.68822 ] } },
{ "type": "Feature", "properties": { "店名": "ファミリーマートグリナード永山店", "住所": "東京都多摩市永山１丁目３番２", "自治体": "多摩市", "fX": 139.44786, "fY": 35.63117 }, "geometry": { "type": "Point", "coordinates": [ 139.44786, 35.63117 ] } },
{ "type": "Feature", "properties": { "店名": "ファミリーマート日医大多摩永山病院店", "住所": "東京都多摩市永山１−７−１日本医科大学多摩永山病院Ａ棟１階", "自治体": "多摩市", "fX": 139.4463, "fY": 35.63121 }, "geometry": { "type": "Point", "coordinates": [ 139.4463, 35.63121 ] } },
{ "type": "Feature", "properties": { "店名": "ファミリーマート秀栄多摩落合店", "住所": "東京都多摩市落合１−２１−１", "自治体": "多摩市", "fX": 139.43132, "fY": 35.62354 }, "geometry": { "type": "Point", "coordinates": [ 139.43132, 35.62354 ] } },
{ "type": "Feature", "properties": { "店名": "ファミリーマート秀栄関戸五丁目店", "住所": "東京都多摩市関戸五丁目１７番１", "自治体": "多摩市", "fX": 139.45169, "fY": 35.64568 }, "geometry": { "type": "Point", "coordinates": [ 139.45169, 35.64568 ] } },
{ "type": "Feature", "properties": { "店名": "ファミリーマート東大和桜が丘店", "住所": "東京都東大和市桜が丘二丁目２５１−３", "自治体": "東大和市", "fX": 139.4167, "fY": 35.73748 }, "geometry": { "type": "Point", "coordinates": [ 139.4167, 35.73748 ] } },
{ "type": "Feature", "properties": { "店名": "ファミリーマート東青梅駅北口店", "住所": "東京都青梅市東青梅二丁目１３番１７", "自治体": "青梅市", "fX": 139.27356, "fY": 35.79004 }, "geometry": { "type": "Point", "coordinates": [ 139.27356, 35.79004 ] } },
{ "type": "Feature", "properties": { "店名": "ファミリーマート河辺駅北口店", "住所": "東京都青梅市河辺町１０−６−６", "自治体": "青梅市", "fX": 139.28656, "fY": 35.78514 }, "geometry": { "type": "Point", "coordinates": [ 139.28656, 35.78514 ] } },
{ "type": "Feature", "properties": { "店名": "ファミリーマート海田岩蔵街道店", "住所": "東京都青梅市藤橋１−３９６−２", "自治体": "青梅市", "fX": 139.30333, "fY": 35.80788 }, "geometry": { "type": "Point", "coordinates": [ 139.30333, 35.80788 ] } },
{ "type": "Feature", "properties": { "店名": "ファミリーマート青梅野上店", "住所": "東京都青梅市野上町３丁目２２番７", "自治体": "青梅市", "fX": 139.29057, "fY": 35.78857 }, "geometry": { "type": "Point", "coordinates": [ 139.29057, 35.78857 ] } },
{ "type": "Feature", "properties": { "店名": "ファミリーマート初台交差点前店", "住所": "東京都渋谷区代々木４−３３−１０トーシンビル１Ｆ", "自治体": "渋谷区", "fX": 139.68895, "fY": 35.68182 }, "geometry": { "type": "Point", "coordinates": [ 139.68895, 35.68182 ] } },
{ "type": "Feature", "properties": { "店名": "ファミリーマート薬ヒグチ恵比寿アメリカ橋店", "住所": "東京都渋谷区恵比寿南１丁目２４−２ＥＢＩＳＵＦＯＲＴ", "自治体": "渋谷区", "fX": 139.71143, "fY": 35.64299 }, "geometry": { "type": "Point", "coordinates": [ 139.71143, 35.64299 ] } },
{ "type": "Feature", "properties": { "店名": "ファミリーマート渋谷笹塚一丁目店", "住所": "東京都渋谷区笹塚一丁目９番１０号", "自治体": "渋谷区", "fX": 139.67007, "fY": 35.67345 }, "geometry": { "type": "Point", "coordinates": [ 139.67007, 35.67345 ] } },
{ "type": "Feature", "properties": { "店名": "ファミリーマート幡ヶ谷駅南店", "住所": "東京都渋谷区西原２丁目３１−５", "自治体": "渋谷区", "fX": 139.67706, "fY": 35.67601 }, "geometry": { "type": "Point", "coordinates": [ 139.67706, 35.67601 ] } },
{ "type": "Feature", "properties": { "店名": "ファミリーマート渋谷マークシティ店", "住所": "東京都渋谷区道玄坂１−１２−５", "自治体": "渋谷区", "fX": 139.698, "fY": 35.65793 }, "geometry": { "type": "Point", "coordinates": [ 139.698, 35.65793 ] } },
{ "type": "Feature", "properties": { "店名": "ファミリーマート道玄坂中央店", "住所": "東京都渋谷区道玄坂２丁目１１−１ＧＳＱＵＡＲＥ", "自治体": "渋谷区", "fX": 139.69609, "fY": 35.65783 }, "geometry": { "type": "Point", "coordinates": [ 139.69609, 35.65783 ] } },
{ "type": "Feature", "properties": { "店名": "ファミリーマート目黒三田通り店", "住所": "東京都目黒区目黒１丁目１−５", "自治体": "目黒区", "fX": 139.71257, "fY": 35.63755 }, "geometry": { "type": "Point", "coordinates": [ 139.71257, 35.63755 ] } },
{ "type": "Feature", "properties": { "店名": "ファミリーマート学芸大学駅南店", "住所": "東京都目黒区碑文谷６丁目１−２６", "自治体": "目黒区", "fX": 139.68513, "fY": 35.62641 }, "geometry": { "type": "Point", "coordinates": [ 139.68513, 35.62641 ] } },
{ "type": "Feature", "properties": { "店名": "ファミリーマート日の出平井店", "住所": "東京都西多摩郡日の出町平井７２５−１", "自治体": "西多摩郡日の出町", "fX": 139.27795, "fY": 35.73864 }, "geometry": { "type": "Point", "coordinates": [ 139.27795, 35.73864 ] } },
{ "type": "Feature", "properties": { "店名": "ファミリーマート瑞穂駒形店", "住所": "東京都西多摩郡瑞穂町大字二本木１３５３番地", "自治体": "西多摩郡瑞穂町", "fX": 139.36807, "fY": 35.78928 }, "geometry": { "type": "Point", "coordinates": [ 139.36807, 35.78928 ] } },
{ "type": "Feature", "properties": { "店名": "ファミリーマート八重洲一丁目店", "住所": "東京都中央区八重洲１丁目５−９", "自治体": "中央区", "fX": 139.77036, "fY": 35.68189 }, "geometry": { "type": "Point", "coordinates": [ 139.77036, 35.68189 ] } },
{ "type": "Feature", "properties": { "店名": "ファミリーマート日本橋浜町Ｆタワー店", "住所": "東京都中央区日本橋浜町３丁目２２−１", "自治体": "中央区", "fX": 139.7886, "fY": 35.6856 }, "geometry": { "type": "Point", "coordinates": [ 139.7886, 35.6856 ] } },
{ "type": "Feature", "properties": { "店名": "ファミリーマート晴海センタービル店", "住所": "東京都中央区晴海２丁目５−２４晴海センタービル", "自治体": "中央区", "fX": 139.7827, "fY": 35.65546 }, "geometry": { "type": "Point", "coordinates": [ 139.7827, 35.65546 ] } },
{ "type": "Feature", "properties": { "店名": "ファミリーマート中央月島三丁目店", "住所": "東京都中央区月島三丁目１２番４号", "自治体": "中央区", "fX": 139.78131, "fY": 35.66233 }, "geometry": { "type": "Point", "coordinates": [ 139.78131, 35.66233 ] } },
{ "type": "Feature", "properties": { "店名": "ファミリーマート新富町駅前店", "住所": "東京都中央区築地２−３−２", "自治体": "中央区", "fX": 139.77419, "fY": 35.66973 }, "geometry": { "type": "Point", "coordinates": [ 139.77419, 35.66973 ] } },
{ "type": "Feature", "properties": { "店名": "ファミリーマート銀座八丁目店", "住所": "東京都中央区銀座八丁目１０番１７号", "自治体": "中央区", "fX": 139.76231, "fY": 35.66779 }, "geometry": { "type": "Point", "coordinates": [ 139.76231, 35.66779 ] } },
{ "type": "Feature", "properties": { "店名": "ファミリーマートＫ２銀座八丁目店", "住所": "東京都中央区銀座８−６−１５", "自治体": "中央区", "fX": 139.76062, "fY": 35.66862 }, "geometry": { "type": "Point", "coordinates": [ 139.76062, 35.66862 ] } },
{ "type": "Feature", "properties": { "店名": "ファミリーマート滝山中央通り店", "住所": "東京都東久留米市前沢五丁目２４番１２号", "自治体": "東久留米市", "fX": 139.51003, "fY": 35.74284 }, "geometry": { "type": "Point", "coordinates": [ 139.51003, 35.74284 ] } },
{ "type": "Feature", "properties": { "店名": "ファミリーマート東久留米前沢店", "住所": "東京都東久留米市前沢四丁目４番１２号", "自治体": "東久留米市", "fX": 139.51378, "fY": 35.74493 }, "geometry": { "type": "Point", "coordinates": [ 139.51378, 35.74493 ] } },
{ "type": "Feature", "properties": { "店名": "ファミリーマート幸町三丁目店", "住所": "東京都東久留米市幸町３−４−１４", "自治体": "東久留米市", "fX": 139.52118, "fY": 35.75715 }, "geometry": { "type": "Point", "coordinates": [ 139.52118, 35.75715 ] } },
{ "type": "Feature", "properties": { "店名": "ファミリーマート東久留米本町一丁目店", "住所": "東京都東久留米市本町１−４−５", "自治体": "東久留米市", "fX": 139.53204, "fY": 35.75937 }, "geometry": { "type": "Point", "coordinates": [ 139.53204, 35.75937 ] } },
{ "type": "Feature", "properties": { "店名": "ファミリーマート滝山一丁目店", "住所": "東京都東久留米市滝山１丁目８−１５", "自治体": "東久留米市", "fX": 139.51006, "fY": 35.74884 }, "geometry": { "type": "Point", "coordinates": [ 139.51006, 35.74884 ] } },
{ "type": "Feature", "properties": { "店名": "ファミリーマート昭島東文化通り店", "住所": "東京都昭島市中神町１３８８−３", "自治体": "昭島市", "fX": 139.38214, "fY": 35.71807 }, "geometry": { "type": "Point", "coordinates": [ 139.38214, 35.71807 ] } },
{ "type": "Feature", "properties": { "店名": "ファミリーマート宮沢町一丁目店", "住所": "東京都昭島市宮沢町１−２０−８", "自治体": "昭島市", "fX": 139.36642, "fY": 35.70492 }, "geometry": { "type": "Point", "coordinates": [ 139.36642, 35.70492 ] } },
{ "type": "Feature", "properties": { "店名": "ファミリーマート西調布駅前店", "住所": "東京都調布市上石原２−３３−２ＮＫビル１階", "自治体": "調布市", "fX": 139.53073, "fY": 35.6566 }, "geometry": { "type": "Point", "coordinates": [ 139.53073, 35.6566 ] } },
{ "type": "Feature", "properties": { "店名": "ファミリーマート調布駅北店", "住所": "東京都調布市布田１丁目２７−３", "自治体": "調布市", "fX": 139.54576, "fY": 35.65336 }, "geometry": { "type": "Point", "coordinates": [ 139.54576, 35.65336 ] } },
{ "type": "Feature", "properties": { "店名": "ファミリーマート福生多摩橋通り店", "住所": "東京都福生市大字福生２１５", "自治体": "福生市", "fX": 139.33313, "fY": 35.73838 }, "geometry": { "type": "Point", "coordinates": [ 139.33313, 35.73838 ] } },
{ "type": "Feature", "properties": { "店名": "ファミリーマート福生横田基地前店", "住所": "東京都福生市熊川１３１１−３", "自治体": "福生市", "fX": 139.34271, "fY": 35.72807 }, "geometry": { "type": "Point", "coordinates": [ 139.34271, 35.72807 ] } },
{ "type": "Feature", "properties": { "店名": "ファミリーマート下連雀店", "住所": "東京都三鷹市下連雀１−８−１５", "自治体": "三鷹市", "fX": 139.56982, "fY": 35.69254 },